size,version,checksum,scan_index,error_info,module_time_ms,sensor_height,sensor_mount_ornt_yaw,sensor_mount_ornt_pitch,sensor_mount_ornt_roll,sensor_long_offset,sensor_lat_offset,sensor_mount_pos_x,sensor_mount_pos_y,sensor_mount_pos_z,radr_center_freq,time_since_power_on,timestamp,frame_rcvd_event,stop_event,streamline_event,interrupt_counts,interrupt_err_counts,radar_post_daq_count,mode_trig_count,radar_post_rdd_count,heartbeat_count,mmic_err_code,mipi_err_counter,mmic_err_counter,AF_overrun_cnt,RDD_overrun_cnt,range_overrun_cnt,doppler_overrun_cnt,chirp_out_of_sync_cnt,ipc_dsp_to_sram_cnt,ipc_r50_to_dsp_err_cnt,evt_disp_overrun_cnt,dsp_spt_look_id_err_cnt,rbin_error_cnt,scanindex,lookindex,look_type,usc_version_major,usc_version_minor,usc_version_patch,usc_version_platform,sts_serial_num_julian_year,sts_serial_num_julian_day,sts_serial_number_sequence,smc_version_major,smc_version_minor,smc_version_patch,smc_version_platform,mmic_temp_tx0,mmic_temp_tx1,mmic_temp_tx2,mmic_temp_tx3,mmic_temp_rx0,mmic_temp_rx1,mmic_temp_rx2,mmic_temp_rx3,mmic_temp_pm,dsp_temp,hwa_temp,hsm_temp,pbl_version_maj,pbl_version_min,pbl_version_patch,software_version_gen,software_version_variant,software_version_maj,software_version_min,software_version_patch,supply_volts_1_1_V,supply_volts_0_82_V,supply_volts_3_3_V,supply_volts_1_8_V,supply_volts_5_V,supply_volts_2_3_V,source_identifier,pcan_protocol_ver_major,pcan_protocol_ver_minor,stream1_version,stream2_version,stream3_version,stream4_version,stream5_version,stream6_version,platform_variant,sensor_hangle_offset,sensor_vangle_offset,sensor_polarity,sensor_mount_location,radar_position,radar_ethernet,radr_fire_offset,mipi_status,gem_status,enet_sw_status,gpio_status,axidma_status,adma_status,gdma_status,boot_status_DSP,boot_status_C66,usc_load_status,smc_load_status,rdd_status,af_status,range_overrun,doppler_overrun,chirp_out_of_sync,num_valid_FOV_RR_prob,num_valid_FOV_RR,num_valid_FOV_RR_type,veh_CRD_sys_type,mmic_driver_err_flag1,mmic_driver_err_flag2,RAM_test_error,overheat_error,CAN_status,blockage_status,ipc_dsp_smc_incompatibilty_error,
264,0,0,32811,0,0,0.000000,2.356194,0.000000,0.000000,3.598550,0.000000,-0.696000,0.752000,0.660000,0.000000,0,0,0,0,0,0,0,32812,255,32812,0,0,0,0,0,0,0,0,0,0,0,0,0,0,32811,32811,3,2,0,3,72,255,365,112,49,14,9,72,70,71,71,69,61,62,65,63,65,62,63,62,3,0,0,7,72,11,0,150,0,0,0,0,0,0,0,0,0,105,11,10,32,0,0,72,0,0,1,1,0,0,0,0,0,0,0,0,0,0,0,0,0,0,0,0,0,0,0,0,0,0,0,0,0,0,0,0,0,85,
264,0,0,32812,0,0,0.000000,2.356194,0.000000,0.000000,3.598550,0.000000,-0.696000,0.752000,0.660000,0.000000,0,0,0,0,0,0,0,32813,255,32813,0,0,0,0,0,0,0,0,0,0,0,0,0,0,32812,32812,0,2,0,3,72,255,365,112,49,14,9,72,71,71,71,69,61,62,65,63,65,62,63,62,3,0,0,7,72,11,0,150,0,0,0,0,0,0,0,0,0,105,11,10,32,0,0,72,0,0,1,1,0,0,0,0,0,0,0,0,0,0,0,0,0,0,0,0,0,0,0,0,0,0,0,0,0,0,0,0,0,85,
264,0,0,32813,0,0,0.000000,2.356194,0.000000,0.000000,3.598550,0.000000,-0.696000,0.752000,0.660000,0.000000,0,0,0,0,0,0,0,32814,255,32814,0,0,0,0,0,0,0,0,0,0,0,0,0,0,32813,32813,1,2,0,3,72,255,365,112,49,14,9,72,71,71,71,69,61,62,65,63,65,62,63,62,3,0,0,7,72,11,0,150,0,0,0,0,0,0,0,0,0,105,11,10,32,0,0,72,0,0,1,1,0,0,0,0,0,0,0,0,0,0,0,0,0,0,0,0,0,0,0,0,0,0,0,0,0,0,0,0,0,85,
264,0,0,32814,0,0,0.000000,2.356194,0.000000,0.000000,3.598550,0.000000,-0.696000,0.752000,0.660000,0.000000,0,0,0,0,0,0,0,32815,255,32815,0,0,0,0,0,0,0,0,0,0,0,0,0,0,32814,32814,2,2,0,3,72,255,365,112,49,14,9,72,71,71,71,69,61,62,65,63,65,62,63,62,3,0,0,7,72,11,0,150,0,0,0,0,0,0,0,0,0,105,11,10,32,0,0,72,0,0,1,1,0,0,0,0,0,0,0,0,0,0,0,0,0,0,0,0,0,0,0,0,0,0,0,0,0,0,0,0,0,85,
264,0,0,32815,0,0,0.000000,2.356194,0.000000,0.000000,3.598550,0.000000,-0.696000,0.752000,0.660000,0.000000,0,0,0,0,0,0,0,32816,255,32816,0,0,0,0,0,0,0,0,0,0,0,0,0,0,32815,32815,3,2,0,3,72,255,365,112,49,14,9,72,71,71,71,69,61,62,65,63,65,62,63,62,3,0,0,7,72,11,0,150,0,0,0,0,0,0,0,0,0,105,11,10,32,0,0,72,0,0,1,1,0,0,0,0,0,0,0,0,0,0,0,0,0,0,0,0,0,0,0,0,0,0,0,0,0,0,0,0,0,85,
264,0,0,32816,0,0,0.000000,2.356194,0.000000,0.000000,3.598550,0.000000,-0.696000,0.752000,0.660000,0.000000,0,0,0,0,0,0,0,32817,255,32817,0,0,0,0,0,0,0,0,0,0,0,0,0,0,32816,32816,0,2,0,3,72,255,365,112,49,14,9,72,71,71,71,69,61,62,65,63,65,62,63,62,3,0,0,7,72,11,0,150,0,0,0,0,0,0,0,0,0,105,11,10,32,0,0,72,0,0,1,1,0,0,0,0,0,0,0,0,0,0,0,0,0,0,0,0,0,0,0,0,0,0,0,0,0,0,0,0,0,85,
264,0,0,32817,0,0,0.000000,2.356194,0.000000,0.000000,3.598550,0.000000,-0.696000,0.752000,0.660000,0.000000,0,0,0,0,0,0,0,32818,255,32818,0,0,0,0,0,0,0,0,0,0,0,0,0,0,32817,32817,1,2,0,3,72,255,365,112,49,14,9,72,71,71,71,69,61,62,65,63,65,62,63,62,3,0,0,7,72,11,0,150,0,0,0,0,0,0,0,0,0,105,11,10,32,0,0,72,0,0,1,1,0,0,0,0,0,0,0,0,0,0,0,0,0,0,0,0,0,0,0,0,0,0,0,0,0,0,0,0,0,85,
264,0,0,32818,0,0,0.000000,2.356194,0.000000,0.000000,3.598550,0.000000,-0.696000,0.752000,0.660000,0.000000,0,0,0,0,0,0,0,32819,255,32819,0,0,0,0,0,0,0,0,0,0,0,0,0,0,32818,32818,2,2,0,3,72,255,365,112,49,14,9,72,71,71,71,69,61,62,65,63,65,62,63,62,3,0,0,7,72,11,0,150,0,0,0,0,0,0,0,0,0,105,11,10,32,0,0,72,0,0,1,1,0,0,0,0,0,0,0,0,0,0,0,0,0,0,0,0,0,0,0,0,0,0,0,0,0,0,0,0,0,85,
264,0,0,32819,0,0,0.000000,2.356194,0.000000,0.000000,3.598550,0.000000,-0.696000,0.752000,0.660000,0.000000,0,0,0,0,0,0,0,32820,255,32820,0,0,0,0,0,0,0,0,0,0,0,0,0,0,32819,32819,3,2,0,3,72,255,365,112,49,14,9,72,71,71,71,69,61,62,65,63,65,62,63,62,3,0,0,7,72,11,0,150,0,0,0,0,0,0,0,0,0,105,11,10,32,0,0,72,0,0,1,1,0,0,0,0,0,0,0,0,0,0,0,0,0,0,0,0,0,0,0,0,0,0,0,0,0,0,0,0,0,85,
264,0,0,32820,0,0,0.000000,2.356194,0.000000,0.000000,3.598550,0.000000,-0.696000,0.752000,0.660000,0.000000,0,0,0,0,0,0,0,32821,255,32821,0,0,0,0,0,0,0,0,0,0,0,0,0,0,32820,32820,0,2,0,3,72,255,365,112,49,14,9,72,70,71,71,69,61,62,65,62,65,62,63,62,3,0,0,7,72,11,0,150,0,0,0,0,0,0,0,0,0,105,11,10,32,0,0,72,0,0,1,1,0,0,0,0,0,0,0,0,0,0,0,0,0,0,0,0,0,0,0,0,0,0,0,0,0,0,0,0,0,85,
264,0,0,32821,0,0,0.000000,2.356194,0.000000,0.000000,3.598550,0.000000,-0.696000,0.752000,0.660000,0.000000,0,0,0,0,0,0,0,32822,255,32822,0,0,0,0,0,0,0,0,0,0,0,0,0,0,32821,32821,1,2,0,3,72,255,365,112,49,14,9,72,70,71,71,69,61,62,65,62,65,61,63,62,3,0,0,7,72,11,0,150,0,0,0,0,0,0,0,0,0,105,11,10,32,0,0,72,0,0,1,1,0,0,0,0,0,0,0,0,0,0,0,0,0,0,0,0,0,0,0,0,0,0,0,0,0,0,0,0,0,85,
264,0,0,32822,0,0,0.000000,2.356194,0.000000,0.000000,3.598550,0.000000,-0.696000,0.752000,0.660000,0.000000,0,0,0,0,0,0,0,32823,255,32823,0,0,0,0,0,0,0,0,0,0,0,0,0,0,32822,32822,2,2,0,3,72,255,365,112,49,14,9,72,70,71,71,69,61,62,65,62,65,61,63,62,3,0,0,7,72,11,0,150,0,0,0,0,0,0,0,0,0,105,11,10,32,0,0,72,0,0,1,1,0,0,0,0,0,0,0,0,0,0,0,0,0,0,0,0,0,0,0,0,0,0,0,0,0,0,0,0,0,85,
264,0,0,32823,0,0,0.000000,2.356194,0.000000,0.000000,3.598550,0.000000,-0.696000,0.752000,0.660000,0.000000,0,0,0,0,0,0,0,32824,255,32824,0,0,0,0,0,0,0,0,0,0,0,0,0,0,32823,32823,3,2,0,3,72,255,365,112,49,14,9,72,70,71,71,69,61,62,65,62,65,61,63,62,3,0,0,7,72,11,0,150,0,0,0,0,0,0,0,0,0,105,11,10,32,0,0,72,0,0,1,1,0,0,0,0,0,0,0,0,0,0,0,0,0,0,0,0,0,0,0,0,0,0,0,0,0,0,0,0,0,85,
264,0,0,32824,0,0,0.000000,2.356194,0.000000,0.000000,3.598550,0.000000,-0.696000,0.752000,0.660000,0.000000,0,0,0,0,0,0,0,32825,255,32825,0,0,0,0,0,0,0,0,0,0,0,0,0,0,32824,32824,0,2,0,3,72,255,365,112,49,14,9,72,71,71,71,69,61,62,65,62,65,61,63,62,3,0,0,7,72,11,0,150,0,0,0,0,0,0,0,0,0,105,11,10,32,0,0,72,0,0,1,1,0,0,0,0,0,0,0,0,0,0,0,0,0,0,0,0,0,0,0,0,0,0,0,0,0,0,0,0,0,85,
264,0,0,32825,0,0,0.000000,2.356194,0.000000,0.000000,3.598550,0.000000,-0.696000,0.752000,0.660000,0.000000,0,0,0,0,0,0,0,32826,255,32826,0,0,0,0,0,0,0,0,0,0,0,0,0,0,32825,32825,1,2,0,3,72,255,365,112,49,14,9,72,71,71,71,69,61,62,65,62,65,61,63,62,3,0,0,7,72,11,0,150,0,0,0,0,0,0,0,0,0,105,11,10,32,0,0,72,0,0,1,1,0,0,0,0,0,0,0,0,0,0,0,0,0,0,0,0,0,0,0,0,0,0,0,0,0,0,0,0,0,85,
264,0,0,32826,0,0,0.000000,2.356194,0.000000,0.000000,3.598550,0.000000,-0.696000,0.752000,0.660000,0.000000,0,0,0,0,0,0,0,32827,255,32827,0,0,0,0,0,0,0,0,0,0,0,0,0,0,32826,32826,2,2,0,3,72,255,365,112,49,14,9,72,71,71,71,69,61,62,65,62,65,61,63,62,3,0,0,7,72,11,0,150,0,0,0,0,0,0,0,0,0,105,11,10,32,0,0,72,0,0,1,1,0,0,0,0,0,0,0,0,0,0,0,0,0,0,0,0,0,0,0,0,0,0,0,0,0,0,0,0,0,85,
264,0,0,32827,0,0,0.000000,2.356194,0.000000,0.000000,3.598550,0.000000,-0.696000,0.752000,0.660000,0.000000,0,0,0,0,0,0,0,32828,255,32828,0,0,0,0,0,0,0,0,0,0,0,0,0,0,32827,32827,3,2,0,3,72,255,365,112,49,14,9,72,71,71,71,69,61,62,65,62,65,61,63,62,3,0,0,7,72,11,0,150,0,0,0,0,0,0,0,0,0,105,11,10,32,0,0,72,0,0,1,1,0,0,0,0,0,0,0,0,0,0,0,0,0,0,0,0,0,0,0,0,0,0,0,0,0,0,0,0,0,85,
264,0,0,32828,0,0,0.000000,2.356194,0.000000,0.000000,3.598550,0.000000,-0.696000,0.752000,0.660000,0.000000,0,0,0,0,0,0,0,32829,255,32829,0,0,0,0,0,0,0,0,0,0,0,0,0,0,32828,32828,0,2,0,3,72,255,365,112,49,14,9,72,70,71,71,69,61,62,65,63,65,61,63,62,3,0,0,7,72,11,0,150,0,0,0,0,0,0,0,0,0,105,11,10,32,0,0,72,0,0,1,1,0,0,0,0,0,0,0,0,0,0,0,0,0,0,0,0,0,0,0,0,0,0,0,0,0,0,0,0,0,85,
264,0,0,32829,0,0,0.000000,2.356194,0.000000,0.000000,3.598550,0.000000,-0.696000,0.752000,0.660000,0.000000,0,0,0,0,0,0,0,32830,255,32830,0,0,0,0,0,0,0,0,0,0,0,0,0,0,32829,32829,1,2,0,3,72,255,365,112,49,14,9,72,70,71,71,69,61,62,65,63,65,61,63,62,3,0,0,7,72,11,0,150,0,0,0,0,0,0,0,0,0,105,11,10,32,0,0,72,0,0,1,1,0,0,0,0,0,0,0,0,0,0,0,0,0,0,0,0,0,0,0,0,0,0,0,0,0,0,0,0,0,85,
264,0,0,32830,0,0,0.000000,2.356194,0.000000,0.000000,3.598550,0.000000,-0.696000,0.752000,0.660000,0.000000,0,0,0,0,0,0,0,32831,255,32831,0,0,0,0,0,0,0,0,0,0,0,0,0,0,32830,32830,2,2,0,3,72,255,365,112,49,14,9,72,70,71,71,69,61,62,65,63,65,61,63,62,3,0,0,7,72,11,0,150,0,0,0,0,0,0,0,0,0,105,11,10,32,0,0,72,0,0,1,1,0,0,0,0,0,0,0,0,0,0,0,0,0,0,0,0,0,0,0,0,0,0,0,0,0,0,0,0,0,85,
264,0,0,32831,0,0,0.000000,2.356194,0.000000,0.000000,3.598550,0.000000,-0.696000,0.752000,0.660000,0.000000,0,0,0,0,0,0,0,32832,255,32832,0,0,0,0,0,0,0,0,0,0,0,0,0,0,32831,32831,3,2,0,3,72,255,365,112,49,14,9,72,70,71,71,69,61,62,65,63,65,61,63,62,3,0,0,7,72,11,0,150,0,0,0,0,0,0,0,0,0,105,11,10,32,0,0,72,0,0,1,1,0,0,0,0,0,0,0,0,0,0,0,0,0,0,0,0,0,0,0,0,0,0,0,0,0,0,0,0,0,85,
264,0,0,32832,0,0,0.000000,2.356194,0.000000,0.000000,3.598550,0.000000,-0.696000,0.752000,0.660000,0.000000,0,0,0,0,0,0,0,32833,255,32833,0,0,0,0,0,0,0,0,0,0,0,0,0,0,32832,32832,0,2,0,3,72,255,365,112,49,14,9,72,71,71,71,69,61,62,65,62,65,61,63,62,3,0,0,7,72,11,0,150,0,0,0,0,0,0,0,0,0,105,11,10,32,0,0,72,0,0,1,1,0,0,0,0,0,0,0,0,0,0,0,0,0,0,0,0,0,0,0,0,0,0,0,0,0,0,0,0,0,85,
264,0,0,32833,0,0,0.000000,2.356194,0.000000,0.000000,3.598550,0.000000,-0.696000,0.752000,0.660000,0.000000,0,0,0,0,0,0,0,32834,255,32834,0,0,0,0,0,0,0,0,0,0,0,0,0,0,32833,32833,1,2,0,3,72,255,365,112,49,14,9,72,71,71,71,69,61,62,65,62,65,61,63,62,3,0,0,7,72,11,0,150,0,0,0,0,0,0,0,0,0,105,11,10,32,0,0,72,0,0,1,1,0,0,0,0,0,0,0,0,0,0,0,0,0,0,0,0,0,0,0,0,0,0,0,0,0,0,0,0,0,85,
264,0,0,32834,0,0,0.000000,2.356194,0.000000,0.000000,3.598550,0.000000,-0.696000,0.752000,0.660000,0.000000,0,0,0,0,0,0,0,32835,255,32835,0,0,0,0,0,0,0,0,0,0,0,0,0,0,32834,32834,2,2,0,3,72,255,365,112,49,14,9,72,71,71,71,69,61,62,65,62,65,61,63,62,3,0,0,7,72,11,0,150,0,0,0,0,0,0,0,0,0,105,11,10,32,0,0,72,0,0,1,1,0,0,0,0,0,0,0,0,0,0,0,0,0,0,0,0,0,0,0,0,0,0,0,0,0,0,0,0,0,85,
264,0,0,32835,0,0,0.000000,2.356194,0.000000,0.000000,3.598550,0.000000,-0.696000,0.752000,0.660000,0.000000,0,0,0,0,0,0,0,32836,255,32836,0,0,0,0,0,0,0,0,0,0,0,0,0,0,32835,32835,3,2,0,3,72,255,365,112,49,14,9,72,71,71,71,69,61,62,65,62,65,61,63,62,3,0,0,7,72,11,0,150,0,0,0,0,0,0,0,0,0,105,11,10,32,0,0,72,0,0,1,1,0,0,0,0,0,0,0,0,0,0,0,0,0,0,0,0,0,0,0,0,0,0,0,0,0,0,0,0,0,85,
264,0,0,32836,0,0,0.000000,2.356194,0.000000,0.000000,3.598550,0.000000,-0.696000,0.752000,0.660000,0.000000,0,0,0,0,0,0,0,32837,255,32837,0,0,0,0,0,0,0,0,0,0,0,0,0,0,32836,32836,0,2,0,3,72,255,365,112,49,14,9,72,71,71,71,69,61,62,65,63,65,61,63,62,3,0,0,7,72,11,0,150,0,0,0,0,0,0,0,0,0,105,11,10,32,0,0,72,0,0,1,1,0,0,0,0,0,0,0,0,0,0,0,0,0,0,0,0,0,0,0,0,0,0,0,0,0,0,0,0,0,85,
264,0,0,32837,0,0,0.000000,2.356194,0.000000,0.000000,3.598550,0.000000,-0.696000,0.752000,0.660000,0.000000,0,0,0,0,0,0,0,32838,255,32838,0,0,0,0,0,0,0,0,0,0,0,0,0,0,32837,32837,1,2,0,3,72,255,365,112,49,14,9,72,71,71,71,69,61,62,65,63,65,61,63,62,3,0,0,7,72,11,0,150,0,0,0,0,0,0,0,0,0,105,11,10,32,0,0,72,0,0,1,1,0,0,0,0,0,0,0,0,0,0,0,0,0,0,0,0,0,0,0,0,0,0,0,0,0,0,0,0,0,85,
264,0,0,32838,0,0,0.000000,2.356194,0.000000,0.000000,3.598550,0.000000,-0.696000,0.752000,0.660000,0.000000,0,0,0,0,0,0,0,32839,255,32839,0,0,0,0,0,0,0,0,0,0,0,0,0,0,32838,32838,2,2,0,3,72,255,365,112,49,14,9,72,71,71,71,69,61,62,65,63,65,61,63,62,3,0,0,7,72,11,0,150,0,0,0,0,0,0,0,0,0,105,11,10,32,0,0,72,0,0,1,1,0,0,0,0,0,0,0,0,0,0,0,0,0,0,0,0,0,0,0,0,0,0,0,0,0,0,0,0,0,85,
264,0,0,32839,0,0,0.000000,2.356194,0.000000,0.000000,3.598550,0.000000,-0.696000,0.752000,0.660000,0.000000,0,0,0,0,0,0,0,32840,255,32840,0,0,0,0,0,0,0,0,0,0,0,0,0,0,32839,32839,3,2,0,3,72,255,365,112,49,14,9,72,71,71,71,69,61,62,65,63,65,61,63,62,3,0,0,7,72,11,0,150,0,0,0,0,0,0,0,0,0,105,11,10,32,0,0,72,0,0,1,1,0,0,0,0,0,0,0,0,0,0,0,0,0,0,0,0,0,0,0,0,0,0,0,0,0,0,0,0,0,85,
264,0,0,32840,0,0,0.000000,2.356194,0.000000,0.000000,3.598550,0.000000,-0.696000,0.752000,0.660000,0.000000,0,0,0,0,0,0,0,32841,255,32841,0,0,0,0,0,0,0,0,0,0,0,0,0,0,32840,32840,0,2,0,3,72,255,365,112,49,14,9,72,71,71,71,69,61,62,65,63,65,61,63,62,3,0,0,7,72,11,0,150,0,0,0,0,0,0,0,0,0,105,11,10,32,0,0,72,0,0,1,1,0,0,0,0,0,0,0,0,0,0,0,0,0,0,0,0,0,0,0,0,0,0,0,0,0,0,0,0,0,85,
264,0,0,32841,0,0,0.000000,2.356194,0.000000,0.000000,3.598550,0.000000,-0.696000,0.752000,0.660000,0.000000,0,0,0,0,0,0,0,32842,255,32842,0,0,0,0,0,0,0,0,0,0,0,0,0,0,32841,32841,1,2,0,3,72,255,365,112,49,14,9,72,71,71,71,69,61,62,65,63,65,61,63,62,3,0,0,7,72,11,0,150,0,0,0,0,0,0,0,0,0,105,11,10,32,0,0,72,0,0,1,1,0,0,0,0,0,0,0,0,0,0,0,0,0,0,0,0,0,0,0,0,0,0,0,0,0,0,0,0,0,85,
264,0,0,32842,0,0,0.000000,2.356194,0.000000,0.000000,3.598550,0.000000,-0.696000,0.752000,0.660000,0.000000,0,0,0,0,0,0,0,32843,255,32843,0,0,0,0,0,0,0,0,0,0,0,0,0,0,32842,32842,2,2,0,3,72,255,365,112,49,14,9,72,71,71,71,69,61,62,65,63,65,61,63,62,3,0,0,7,72,11,0,150,0,0,0,0,0,0,0,0,0,105,11,10,32,0,0,72,0,0,1,1,0,0,0,0,0,0,0,0,0,0,0,0,0,0,0,0,0,0,0,0,0,0,0,0,0,0,0,0,0,85,
264,0,0,32843,0,0,0.000000,2.356194,0.000000,0.000000,3.598550,0.000000,-0.696000,0.752000,0.660000,0.000000,0,0,0,0,0,0,0,32844,255,32844,0,0,0,0,0,0,0,0,0,0,0,0,0,0,32843,32843,3,2,0,3,72,255,365,112,49,14,9,72,71,71,71,69,61,62,65,63,65,61,63,62,3,0,0,7,72,11,0,150,0,0,0,0,0,0,0,0,0,105,11,10,32,0,0,72,0,0,1,1,0,0,0,0,0,0,0,0,0,0,0,0,0,0,0,0,0,0,0,0,0,0,0,0,0,0,0,0,0,85,
264,0,0,32844,0,0,0.000000,2.356194,0.000000,0.000000,3.598550,0.000000,-0.696000,0.752000,0.660000,0.000000,0,0,0,0,0,0,0,32845,255,32845,0,0,0,0,0,0,0,0,0,0,0,0,0,0,32844,32844,0,2,0,3,72,255,365,112,49,14,9,72,71,71,71,69,61,63,65,63,65,61,63,62,3,0,0,7,72,11,0,150,0,0,0,0,0,0,0,0,0,105,11,10,32,0,0,72,0,0,1,1,0,0,0,0,0,0,0,0,0,0,0,0,0,0,0,0,0,0,0,0,0,0,0,0,0,0,0,0,0,85,
264,0,0,32845,0,0,0.000000,2.356194,0.000000,0.000000,3.598550,0.000000,-0.696000,0.752000,0.660000,0.000000,0,0,0,0,0,0,0,32846,255,32846,0,0,0,0,0,0,0,0,0,0,0,0,0,0,32845,32845,1,2,0,3,72,255,365,112,49,14,9,72,71,71,71,69,61,63,65,63,65,61,63,62,3,0,0,7,72,11,0,150,0,0,0,0,0,0,0,0,0,105,11,10,32,0,0,72,0,0,1,1,0,0,0,0,0,0,0,0,0,0,0,0,0,0,0,0,0,0,0,0,0,0,0,0,0,0,0,0,0,85,
264,0,0,32846,0,0,0.000000,2.356194,0.000000,0.000000,3.598550,0.000000,-0.696000,0.752000,0.660000,0.000000,0,0,0,0,0,0,0,32847,255,32847,0,0,0,0,0,0,0,0,0,0,0,0,0,0,32846,32846,2,2,0,3,72,255,365,112,49,14,9,72,71,71,71,69,61,63,65,63,65,61,63,62,3,0,0,7,72,11,0,150,0,0,0,0,0,0,0,0,0,105,11,10,32,0,0,72,0,0,1,1,0,0,0,0,0,0,0,0,0,0,0,0,0,0,0,0,0,0,0,0,0,0,0,0,0,0,0,0,0,85,
264,0,0,32847,0,0,0.000000,2.356194,0.000000,0.000000,3.598550,0.000000,-0.696000,0.752000,0.660000,0.000000,0,0,0,0,0,0,0,32848,255,32848,0,0,0,0,0,0,0,0,0,0,0,0,0,0,32847,32847,3,2,0,3,72,255,365,112,49,14,9,72,71,71,71,69,61,63,65,63,65,61,63,62,3,0,0,7,72,11,0,150,0,0,0,0,0,0,0,0,0,105,11,10,32,0,0,72,0,0,1,1,0,0,0,0,0,0,0,0,0,0,0,0,0,0,0,0,0,0,0,0,0,0,0,0,0,0,0,0,0,85,
264,0,0,32848,0,0,0.000000,2.356194,0.000000,0.000000,3.598550,0.000000,-0.696000,0.752000,0.660000,0.000000,0,0,0,0,0,0,0,32849,255,32849,0,0,0,0,0,0,0,0,0,0,0,0,0,0,32848,32848,0,2,0,3,72,255,365,112,49,14,9,72,71,71,71,69,61,62,65,62,65,61,63,62,3,0,0,7,72,11,0,150,0,0,0,0,0,0,0,0,0,105,11,10,32,0,0,72,0,0,1,1,0,0,0,0,0,0,0,0,0,0,0,0,0,0,0,0,0,0,0,0,0,0,0,0,0,0,0,0,0,85,
264,0,0,32849,0,0,0.000000,2.356194,0.000000,0.000000,3.598550,0.000000,-0.696000,0.752000,0.660000,0.000000,0,0,0,0,0,0,0,32850,255,32850,0,0,0,0,0,0,0,0,0,0,0,0,0,0,32849,32849,1,2,0,3,72,255,365,112,49,14,9,72,71,71,71,69,61,62,65,62,65,61,63,62,3,0,0,7,72,11,0,150,0,0,0,0,0,0,0,0,0,105,11,10,32,0,0,72,0,0,1,1,0,0,0,0,0,0,0,0,0,0,0,0,0,0,0,0,0,0,0,0,0,0,0,0,0,0,0,0,0,85,
264,0,0,32850,0,0,0.000000,2.356194,0.000000,0.000000,3.598550,0.000000,-0.696000,0.752000,0.660000,0.000000,0,0,0,0,0,0,0,32851,255,32851,0,0,0,0,0,0,0,0,0,0,0,0,0,0,32850,32850,2,2,0,3,72,255,365,112,49,14,9,72,71,71,71,69,61,62,65,62,65,61,63,62,3,0,0,7,72,11,0,150,0,0,0,0,0,0,0,0,0,105,11,10,32,0,0,72,0,0,1,1,0,0,0,0,0,0,0,0,0,0,0,0,0,0,0,0,0,0,0,0,0,0,0,0,0,0,0,0,0,85,
264,0,0,32851,0,0,0.000000,2.356194,0.000000,0.000000,3.598550,0.000000,-0.696000,0.752000,0.660000,0.000000,0,0,0,0,0,0,0,32852,255,32852,0,0,0,0,0,0,0,0,0,0,0,0,0,0,32851,32851,3,2,0,3,72,255,365,112,49,14,9,72,71,71,71,69,61,62,65,62,65,61,63,62,3,0,0,7,72,11,0,150,0,0,0,0,0,0,0,0,0,105,11,10,32,0,0,72,0,0,1,1,0,0,0,0,0,0,0,0,0,0,0,0,0,0,0,0,0,0,0,0,0,0,0,0,0,0,0,0,0,85,
264,0,0,32852,0,0,0.000000,2.356194,0.000000,0.000000,3.598550,0.000000,-0.696000,0.752000,0.660000,0.000000,0,0,0,0,0,0,0,32853,255,32853,0,0,0,0,0,0,0,0,0,0,0,0,0,0,32852,32852,0,2,0,3,72,255,365,112,49,14,9,72,70,71,71,68,61,62,65,63,65,61,63,62,3,0,0,7,72,11,0,150,0,0,0,0,0,0,0,0,0,105,11,10,32,0,0,72,0,0,1,1,0,0,0,0,0,0,0,0,0,0,0,0,0,0,0,0,0,0,0,0,0,0,0,0,0,0,0,0,0,85,
264,0,0,32853,0,0,0.000000,2.356194,0.000000,0.000000,3.598550,0.000000,-0.696000,0.752000,0.660000,0.000000,0,0,0,0,0,0,0,32854,255,32854,0,0,0,0,0,0,0,0,0,0,0,0,0,0,32853,32853,1,2,0,3,72,255,365,112,49,14,9,72,70,71,71,68,61,62,65,63,65,61,63,62,3,0,0,7,72,11,0,150,0,0,0,0,0,0,0,0,0,105,11,10,32,0,0,72,0,0,1,1,0,0,0,0,0,0,0,0,0,0,0,0,0,0,0,0,0,0,0,0,0,0,0,0,0,0,0,0,0,85,
264,0,0,32854,0,0,0.000000,2.356194,0.000000,0.000000,3.598550,0.000000,-0.696000,0.752000,0.660000,0.000000,0,0,0,0,0,0,0,32855,255,32855,0,0,0,0,0,0,0,0,0,0,0,0,0,0,32854,32854,2,2,0,3,72,255,365,112,49,14,9,72,70,71,71,68,61,62,65,63,65,61,63,62,3,0,0,7,72,11,0,150,0,0,0,0,0,0,0,0,0,105,11,10,32,0,0,72,0,0,1,1,0,0,0,0,0,0,0,0,0,0,0,0,0,0,0,0,0,0,0,0,0,0,0,0,0,0,0,0,0,85,
264,0,0,32855,0,0,0.000000,2.356194,0.000000,0.000000,3.598550,0.000000,-0.696000,0.752000,0.660000,0.000000,0,0,0,0,0,0,0,32856,255,32856,0,0,0,0,0,0,0,0,0,0,0,0,0,0,32855,32855,3,2,0,3,72,255,365,112,49,14,9,72,70,71,71,68,61,62,65,63,65,61,63,62,3,0,0,7,72,11,0,150,0,0,0,0,0,0,0,0,0,105,11,10,32,0,0,72,0,0,1,1,0,0,0,0,0,0,0,0,0,0,0,0,0,0,0,0,0,0,0,0,0,0,0,0,0,0,0,0,0,85,
264,0,0,32856,0,0,0.000000,2.356194,0.000000,0.000000,3.598550,0.000000,-0.696000,0.752000,0.660000,0.000000,0,0,0,0,0,0,0,32857,255,32857,0,0,0,0,0,0,0,0,0,0,0,0,0,0,32856,32856,0,2,0,3,72,255,365,112,49,14,9,72,70,71,71,68,61,62,65,63,65,61,63,62,3,0,0,7,72,11,0,150,0,0,0,0,0,0,0,0,0,105,11,10,32,0,0,72,0,0,1,1,0,0,0,0,0,0,0,0,0,0,0,0,0,0,0,0,0,0,0,0,0,0,0,0,0,0,0,0,0,85,
264,0,0,32857,0,0,0.000000,2.356194,0.000000,0.000000,3.598550,0.000000,-0.696000,0.752000,0.660000,0.000000,0,0,0,0,0,0,0,32858,255,32858,0,0,0,0,0,0,0,0,0,0,0,0,0,0,32857,32857,1,2,0,3,72,255,365,112,49,14,9,72,70,71,71,68,61,62,65,63,65,61,63,62,3,0,0,7,72,11,0,150,0,0,0,0,0,0,0,0,0,105,11,10,32,0,0,72,0,0,1,1,0,0,0,0,0,0,0,0,0,0,0,0,0,0,0,0,0,0,0,0,0,0,0,0,0,0,0,0,0,85,
264,0,0,32858,0,0,0.000000,2.356194,0.000000,0.000000,3.598550,0.000000,-0.696000,0.752000,0.660000,0.000000,0,0,0,0,0,0,0,32859,255,32859,0,0,0,0,0,0,0,0,0,0,0,0,0,0,32858,32858,2,2,0,3,72,255,365,112,49,14,9,72,70,71,71,68,61,62,65,63,65,61,63,62,3,0,0,7,72,11,0,150,0,0,0,0,0,0,0,0,0,105,11,10,32,0,0,72,0,0,1,1,0,0,0,0,0,0,0,0,0,0,0,0,0,0,0,0,0,0,0,0,0,0,0,0,0,0,0,0,0,85,
264,0,0,32859,0,0,0.000000,2.356194,0.000000,0.000000,3.598550,0.000000,-0.696000,0.752000,0.660000,0.000000,0,0,0,0,0,0,0,32860,255,32860,0,0,0,0,0,0,0,0,0,0,0,0,0,0,32859,32859,3,2,0,3,72,255,365,112,49,14,9,72,70,71,71,68,61,62,65,63,65,61,63,62,3,0,0,7,72,11,0,150,0,0,0,0,0,0,0,0,0,105,11,10,32,0,0,72,0,0,1,1,0,0,0,0,0,0,0,0,0,0,0,0,0,0,0,0,0,0,0,0,0,0,0,0,0,0,0,0,0,85,
264,0,0,32860,0,0,0.000000,2.356194,0.000000,0.000000,3.598550,0.000000,-0.696000,0.752000,0.660000,0.000000,0,0,0,0,0,0,0,32861,255,32861,0,0,0,0,0,0,0,0,0,0,0,0,0,0,32860,32860,0,2,0,3,72,255,365,112,49,14,9,72,71,71,71,69,61,62,65,63,65,61,63,62,3,0,0,7,72,11,0,150,0,0,0,0,0,0,0,0,0,105,11,10,32,0,0,72,0,0,1,1,0,0,0,0,0,0,0,0,0,0,0,0,0,0,0,0,0,0,0,0,0,0,0,0,0,0,0,0,0,85,
264,0,0,32861,0,0,0.000000,2.356194,0.000000,0.000000,3.598550,0.000000,-0.696000,0.752000,0.660000,0.000000,0,0,0,0,0,0,0,32862,255,32862,0,0,0,0,0,0,0,0,0,0,0,0,0,0,32861,32861,1,2,0,3,72,255,365,112,49,14,9,72,71,71,71,69,61,62,65,63,65,61,63,62,3,0,0,7,72,11,0,150,0,0,0,0,0,0,0,0,0,105,11,10,32,0,0,72,0,0,1,1,0,0,0,0,0,0,0,0,0,0,0,0,0,0,0,0,0,0,0,0,0,0,0,0,0,0,0,0,0,85,
264,0,0,32862,0,0,0.000000,2.356194,0.000000,0.000000,3.598550,0.000000,-0.696000,0.752000,0.660000,0.000000,0,0,0,0,0,0,0,32863,255,32863,0,0,0,0,0,0,0,0,0,0,0,0,0,0,32862,32862,2,2,0,3,72,255,365,112,49,14,9,72,71,71,71,69,61,62,65,63,65,61,63,62,3,0,0,7,72,11,0,150,0,0,0,0,0,0,0,0,0,105,11,10,32,0,0,72,0,0,1,1,0,0,0,0,0,0,0,0,0,0,0,0,0,0,0,0,0,0,0,0,0,0,0,0,0,0,0,0,0,85,
264,0,0,32863,0,0,0.000000,2.356194,0.000000,0.000000,3.598550,0.000000,-0.696000,0.752000,0.660000,0.000000,0,0,0,0,0,0,0,32864,255,32864,0,0,0,0,0,0,0,0,0,0,0,0,0,0,32863,32863,3,2,0,3,72,255,365,112,49,14,9,72,71,71,71,69,61,62,65,63,65,61,63,62,3,0,0,7,72,11,0,150,0,0,0,0,0,0,0,0,0,105,11,10,32,0,0,72,0,0,1,1,0,0,0,0,0,0,0,0,0,0,0,0,0,0,0,0,0,0,0,0,0,0,0,0,0,0,0,0,0,85,
264,0,0,32864,0,0,0.000000,2.356194,0.000000,0.000000,3.598550,0.000000,-0.696000,0.752000,0.660000,0.000000,0,0,0,0,0,0,0,32865,255,32865,0,0,0,0,0,0,0,0,0,0,0,0,0,0,32864,32864,0,2,0,3,72,255,365,112,49,14,9,72,70,71,71,69,61,62,65,62,65,61,63,62,3,0,0,7,72,11,0,150,0,0,0,0,0,0,0,0,0,105,11,10,32,0,0,72,0,0,1,1,0,0,0,0,0,0,0,0,0,0,0,0,0,0,0,0,0,0,0,0,0,0,0,0,0,0,0,0,0,85,
264,0,0,32865,0,0,0.000000,2.356194,0.000000,0.000000,3.598550,0.000000,-0.696000,0.752000,0.660000,0.000000,0,0,0,0,0,0,0,32866,255,32866,0,0,0,0,0,0,0,0,0,0,0,0,0,0,32865,32865,1,2,0,3,72,255,365,112,49,14,9,72,70,71,71,69,61,62,65,62,65,61,63,62,3,0,0,7,72,11,0,150,0,0,0,0,0,0,0,0,0,105,11,10,32,0,0,72,0,0,1,1,0,0,0,0,0,0,0,0,0,0,0,0,0,0,0,0,0,0,0,0,0,0,0,0,0,0,0,0,0,85,
264,0,0,32866,0,0,0.000000,2.356194,0.000000,0.000000,3.598550,0.000000,-0.696000,0.752000,0.660000,0.000000,0,0,0,0,0,0,0,32867,255,32867,0,0,0,0,0,0,0,0,0,0,0,0,0,0,32866,32866,2,2,0,3,72,255,365,112,49,14,9,72,70,71,71,69,61,62,65,62,65,61,63,62,3,0,0,7,72,11,0,150,0,0,0,0,0,0,0,0,0,105,11,10,32,0,0,72,0,0,1,1,0,0,0,0,0,0,0,0,0,0,0,0,0,0,0,0,0,0,0,0,0,0,0,0,0,0,0,0,0,85,
264,0,0,32867,0,0,0.000000,2.356194,0.000000,0.000000,3.598550,0.000000,-0.696000,0.752000,0.660000,0.000000,0,0,0,0,0,0,0,32868,255,32868,0,0,0,0,0,0,0,0,0,0,0,0,0,0,32867,32867,3,2,0,3,72,255,365,112,49,14,9,72,70,71,71,69,61,62,65,62,65,61,63,62,3,0,0,7,72,11,0,150,0,0,0,0,0,0,0,0,0,105,11,10,32,0,0,72,0,0,1,1,0,0,0,0,0,0,0,0,0,0,0,0,0,0,0,0,0,0,0,0,0,0,0,0,0,0,0,0,0,85,
264,0,0,32868,0,0,0.000000,2.356194,0.000000,0.000000,3.598550,0.000000,-0.696000,0.752000,0.660000,0.000000,0,0,0,0,0,0,0,32869,255,32869,0,0,0,0,0,0,0,0,0,0,0,0,0,0,32868,32868,0,2,0,3,72,255,365,112,49,14,9,72,71,71,71,68,61,62,65,62,65,61,63,62,3,0,0,7,72,11,0,150,0,0,0,0,0,0,0,0,0,105,11,10,32,0,0,72,0,0,1,1,0,0,0,0,0,0,0,0,0,0,0,0,0,0,0,0,0,0,0,0,0,0,0,0,0,0,0,0,0,85,
264,0,0,32869,0,0,0.000000,2.356194,0.000000,0.000000,3.598550,0.000000,-0.696000,0.752000,0.660000,0.000000,0,0,0,0,0,0,0,32870,255,32870,0,0,0,0,0,0,0,0,0,0,0,0,0,0,32869,32869,1,2,0,3,72,255,365,112,49,14,9,72,71,71,71,68,61,62,65,62,65,61,63,62,3,0,0,7,72,11,0,150,0,0,0,0,0,0,0,0,0,105,11,10,32,0,0,72,0,0,1,1,0,0,0,0,0,0,0,0,0,0,0,0,0,0,0,0,0,0,0,0,0,0,0,0,0,0,0,0,0,85,
264,0,0,32870,0,0,0.000000,2.356194,0.000000,0.000000,3.598550,0.000000,-0.696000,0.752000,0.660000,0.000000,0,0,0,0,0,0,0,32871,255,32871,0,0,0,0,0,0,0,0,0,0,0,0,0,0,32870,32870,2,2,0,3,72,255,365,112,49,14,9,72,71,71,71,68,61,62,65,62,65,61,63,62,3,0,0,7,72,11,0,150,0,0,0,0,0,0,0,0,0,105,11,10,32,0,0,72,0,0,1,1,0,0,0,0,0,0,0,0,0,0,0,0,0,0,0,0,0,0,0,0,0,0,0,0,0,0,0,0,0,85,
264,0,0,32871,0,0,0.000000,2.356194,0.000000,0.000000,3.598550,0.000000,-0.696000,0.752000,0.660000,0.000000,0,0,0,0,0,0,0,32872,255,32872,0,0,0,0,0,0,0,0,0,0,0,0,0,0,32871,32871,3,2,0,3,72,255,365,112,49,14,9,72,71,71,71,68,61,62,65,62,65,61,63,62,3,0,0,7,72,11,0,150,0,0,0,0,0,0,0,0,0,105,11,10,32,0,0,72,0,0,1,1,0,0,0,0,0,0,0,0,0,0,0,0,0,0,0,0,0,0,0,0,0,0,0,0,0,0,0,0,0,85,
264,0,0,32872,0,0,0.000000,2.356194,0.000000,0.000000,3.598550,0.000000,-0.696000,0.752000,0.660000,0.000000,0,0,0,0,0,0,0,32873,255,32873,0,0,0,0,0,0,0,0,0,0,0,0,0,0,32872,32872,0,2,0,3,72,255,365,112,49,14,9,72,71,71,71,69,61,62,65,63,65,61,63,62,3,0,0,7,72,11,0,150,0,0,0,0,0,0,0,0,0,105,11,10,32,0,0,72,0,0,1,1,0,0,0,0,0,0,0,0,0,0,0,0,0,0,0,0,0,0,0,0,0,0,0,0,0,0,0,0,0,85,
264,0,0,32873,0,0,0.000000,2.356194,0.000000,0.000000,3.598550,0.000000,-0.696000,0.752000,0.660000,0.000000,0,0,0,0,0,0,0,32874,255,32874,0,0,0,0,0,0,0,0,0,0,0,0,0,0,32873,32873,1,2,0,3,72,255,365,112,49,14,9,72,71,71,71,69,61,62,65,63,65,61,63,62,3,0,0,7,72,11,0,150,0,0,0,0,0,0,0,0,0,105,11,10,32,0,0,72,0,0,1,1,0,0,0,0,0,0,0,0,0,0,0,0,0,0,0,0,0,0,0,0,0,0,0,0,0,0,0,0,0,85,
264,0,0,32874,0,0,0.000000,2.356194,0.000000,0.000000,3.598550,0.000000,-0.696000,0.752000,0.660000,0.000000,0,0,0,0,0,0,0,32875,255,32875,0,0,0,0,0,0,0,0,0,0,0,0,0,0,32874,32874,2,2,0,3,72,255,365,112,49,14,9,72,71,71,71,69,61,62,65,63,65,61,63,62,3,0,0,7,72,11,0,150,0,0,0,0,0,0,0,0,0,105,11,10,32,0,0,72,0,0,1,1,0,0,0,0,0,0,0,0,0,0,0,0,0,0,0,0,0,0,0,0,0,0,0,0,0,0,0,0,0,85,
264,0,0,32875,0,0,0.000000,2.356194,0.000000,0.000000,3.598550,0.000000,-0.696000,0.752000,0.660000,0.000000,0,0,0,0,0,0,0,32876,255,32876,0,0,0,0,0,0,0,0,0,0,0,0,0,0,32875,32875,3,2,0,3,72,255,365,112,49,14,9,72,71,71,71,69,61,62,65,63,65,61,63,62,3,0,0,7,72,11,0,150,0,0,0,0,0,0,0,0,0,105,11,10,32,0,0,72,0,0,1,1,0,0,0,0,0,0,0,0,0,0,0,0,0,0,0,0,0,0,0,0,0,0,0,0,0,0,0,0,0,85,
264,0,0,32876,0,0,0.000000,2.356194,0.000000,0.000000,3.598550,0.000000,-0.696000,0.752000,0.660000,0.000000,0,0,0,0,0,0,0,32877,255,32877,0,0,0,0,0,0,0,0,0,0,0,0,0,0,32876,32876,0,2,0,3,72,255,365,112,49,14,9,72,71,71,71,69,61,62,65,62,65,61,63,62,3,0,0,7,72,11,0,150,0,0,0,0,0,0,0,0,0,105,11,10,32,0,0,72,0,0,1,1,0,0,0,0,0,0,0,0,0,0,0,0,0,0,0,0,0,0,0,0,0,0,0,0,0,0,0,0,0,85,
264,0,0,32877,0,0,0.000000,2.356194,0.000000,0.000000,3.598550,0.000000,-0.696000,0.752000,0.660000,0.000000,0,0,0,0,0,0,0,32878,255,32878,0,0,0,0,0,0,0,0,0,0,0,0,0,0,32877,32877,1,2,0,3,72,255,365,112,49,14,9,72,71,71,71,69,61,62,65,62,65,61,63,62,3,0,0,7,72,11,0,150,0,0,0,0,0,0,0,0,0,105,11,10,32,0,0,72,0,0,1,1,0,0,0,0,0,0,0,0,0,0,0,0,0,0,0,0,0,0,0,0,0,0,0,0,0,0,0,0,0,85,
264,0,0,32878,0,0,0.000000,2.356194,0.000000,0.000000,3.598550,0.000000,-0.696000,0.752000,0.660000,0.000000,0,0,0,0,0,0,0,32879,255,32879,0,0,0,0,0,0,0,0,0,0,0,0,0,0,32878,32878,2,2,0,3,72,255,365,112,49,14,9,72,71,71,71,69,61,62,65,62,65,61,63,62,3,0,0,7,72,11,0,150,0,0,0,0,0,0,0,0,0,105,11,10,32,0,0,72,0,0,1,1,0,0,0,0,0,0,0,0,0,0,0,0,0,0,0,0,0,0,0,0,0,0,0,0,0,0,0,0,0,85,
264,0,0,32879,0,0,0.000000,2.356194,0.000000,0.000000,3.598550,0.000000,-0.696000,0.752000,0.660000,0.000000,0,0,0,0,0,0,0,32880,255,32880,0,0,0,0,0,0,0,0,0,0,0,0,0,0,32879,32879,3,2,0,3,72,255,365,112,49,14,9,72,71,71,71,69,61,62,65,62,65,61,63,62,3,0,0,7,72,11,0,150,0,0,0,0,0,0,0,0,0,105,11,10,32,0,0,72,0,0,1,1,0,0,0,0,0,0,0,0,0,0,0,0,0,0,0,0,0,0,0,0,0,0,0,0,0,0,0,0,0,85,
264,0,0,32880,0,0,0.000000,2.356194,0.000000,0.000000,3.598550,0.000000,-0.696000,0.752000,0.660000,0.000000,0,0,0,0,0,0,0,32881,255,32881,0,0,0,0,0,0,0,0,0,0,0,0,0,0,32880,32880,0,2,0,3,72,255,365,112,49,14,9,72,71,71,71,69,61,62,65,63,65,61,63,62,3,0,0,7,72,11,0,150,0,0,0,0,0,0,0,0,0,105,11,10,32,0,0,72,0,0,1,1,0,0,0,0,0,0,0,0,0,0,0,0,0,0,0,0,0,0,0,0,0,0,0,0,0,0,0,0,0,85,
264,0,0,32881,0,0,0.000000,2.356194,0.000000,0.000000,3.598550,0.000000,-0.696000,0.752000,0.660000,0.000000,0,0,0,0,0,0,0,32882,255,32882,0,0,0,0,0,0,0,0,0,0,0,0,0,0,32881,32881,1,2,0,3,72,255,365,112,49,14,9,72,71,71,71,69,61,62,65,63,65,61,63,62,3,0,0,7,72,11,0,150,0,0,0,0,0,0,0,0,0,105,11,10,32,0,0,72,0,0,1,1,0,0,0,0,0,0,0,0,0,0,0,0,0,0,0,0,0,0,0,0,0,0,0,0,0,0,0,0,0,85,
264,0,0,32882,0,0,0.000000,2.356194,0.000000,0.000000,3.598550,0.000000,-0.696000,0.752000,0.660000,0.000000,0,0,0,0,0,0,0,32883,255,32883,0,0,0,0,0,0,0,0,0,0,0,0,0,0,32882,32882,2,2,0,3,72,255,365,112,49,14,9,72,71,71,71,69,61,62,65,63,65,61,63,62,3,0,0,7,72,11,0,150,0,0,0,0,0,0,0,0,0,105,11,10,32,0,0,72,0,0,1,1,0,0,0,0,0,0,0,0,0,0,0,0,0,0,0,0,0,0,0,0,0,0,0,0,0,0,0,0,0,85,
264,0,0,32883,0,0,0.000000,2.356194,0.000000,0.000000,3.598550,0.000000,-0.696000,0.752000,0.660000,0.000000,0,0,0,0,0,0,0,32884,255,32884,0,0,0,0,0,0,0,0,0,0,0,0,0,0,32883,32883,3,2,0,3,72,255,365,112,49,14,9,72,71,71,71,69,61,62,65,63,65,61,63,62,3,0,0,7,72,11,0,150,0,0,0,0,0,0,0,0,0,105,11,10,32,0,0,72,0,0,1,1,0,0,0,0,0,0,0,0,0,0,0,0,0,0,0,0,0,0,0,0,0,0,0,0,0,0,0,0,0,85,
264,0,0,32884,0,0,0.000000,2.356194,0.000000,0.000000,3.598550,0.000000,-0.696000,0.752000,0.660000,0.000000,0,0,0,0,0,0,0,32885,255,32885,0,0,0,0,0,0,0,0,0,0,0,0,0,0,32884,32884,0,2,0,3,72,255,365,112,49,14,9,72,71,71,71,69,61,62,65,63,65,61,63,62,3,0,0,7,72,11,0,150,0,0,0,0,0,0,0,0,0,105,11,10,32,0,0,72,0,0,1,1,0,0,0,0,0,0,0,0,0,0,0,0,0,0,0,0,0,0,0,0,0,0,0,0,0,0,0,0,0,85,
264,0,0,32885,0,0,0.000000,2.356194,0.000000,0.000000,3.598550,0.000000,-0.696000,0.752000,0.660000,0.000000,0,0,0,0,0,0,0,32886,255,32886,0,0,0,0,0,0,0,0,0,0,0,0,0,0,32885,32885,1,2,0,3,72,255,365,112,49,14,9,72,71,71,71,69,61,62,65,63,65,61,63,62,3,0,0,7,72,11,0,150,0,0,0,0,0,0,0,0,0,105,11,10,32,0,0,72,0,0,1,1,0,0,0,0,0,0,0,0,0,0,0,0,0,0,0,0,0,0,0,0,0,0,0,0,0,0,0,0,0,85,
264,0,0,32886,0,0,0.000000,2.356194,0.000000,0.000000,3.598550,0.000000,-0.696000,0.752000,0.660000,0.000000,0,0,0,0,0,0,0,32887,255,32887,0,0,0,0,0,0,0,0,0,0,0,0,0,0,32886,32886,2,2,0,3,72,255,365,112,49,14,9,72,71,71,71,69,61,62,65,63,65,61,63,62,3,0,0,7,72,11,0,150,0,0,0,0,0,0,0,0,0,105,11,10,32,0,0,72,0,0,1,1,0,0,0,0,0,0,0,0,0,0,0,0,0,0,0,0,0,0,0,0,0,0,0,0,0,0,0,0,0,85,
264,0,0,32887,0,0,0.000000,2.356194,0.000000,0.000000,3.598550,0.000000,-0.696000,0.752000,0.660000,0.000000,0,0,0,0,0,0,0,32888,255,32888,0,0,0,0,0,0,0,0,0,0,0,0,0,0,32887,32887,3,2,0,3,72,255,365,112,49,14,9,72,71,71,71,69,61,62,65,63,65,61,63,62,3,0,0,7,72,11,0,150,0,0,0,0,0,0,0,0,0,105,11,10,32,0,0,72,0,0,1,1,0,0,0,0,0,0,0,0,0,0,0,0,0,0,0,0,0,0,0,0,0,0,0,0,0,0,0,0,0,85,
264,0,0,32888,0,0,0.000000,2.356194,0.000000,0.000000,3.598550,0.000000,-0.696000,0.752000,0.660000,0.000000,0,0,0,0,0,0,0,32889,255,32889,0,0,0,0,0,0,0,0,0,0,0,0,0,0,32888,32888,0,2,0,3,72,255,365,112,49,14,9,72,70,71,71,69,61,62,65,63,65,61,63,62,3,0,0,7,72,11,0,150,0,0,0,0,0,0,0,0,0,105,11,10,32,0,0,72,0,0,1,1,0,0,0,0,0,0,0,0,0,0,0,0,0,0,0,0,0,0,0,0,0,0,0,0,0,0,0,0,0,85,
264,0,0,32889,0,0,0.000000,2.356194,0.000000,0.000000,3.598550,0.000000,-0.696000,0.752000,0.660000,0.000000,0,0,0,0,0,0,0,32890,255,32890,0,0,0,0,0,0,0,0,0,0,0,0,0,0,32889,32889,1,2,0,3,72,255,365,112,49,14,9,72,70,71,71,69,61,62,65,63,65,61,63,62,3,0,0,7,72,11,0,150,0,0,0,0,0,0,0,0,0,105,11,10,32,0,0,72,0,0,1,1,0,0,0,0,0,0,0,0,0,0,0,0,0,0,0,0,0,0,0,0,0,0,0,0,0,0,0,0,0,85,
264,0,0,32890,0,0,0.000000,2.356194,0.000000,0.000000,3.598550,0.000000,-0.696000,0.752000,0.660000,0.000000,0,0,0,0,0,0,0,32891,255,32891,0,0,0,0,0,0,0,0,0,0,0,0,0,0,32890,32890,2,2,0,3,72,255,365,112,49,14,9,72,70,71,71,69,61,62,65,63,65,61,63,62,3,0,0,7,72,11,0,150,0,0,0,0,0,0,0,0,0,105,11,10,32,0,0,72,0,0,1,1,0,0,0,0,0,0,0,0,0,0,0,0,0,0,0,0,0,0,0,0,0,0,0,0,0,0,0,0,0,85,
264,0,0,32891,0,0,0.000000,2.356194,0.000000,0.000000,3.598550,0.000000,-0.696000,0.752000,0.660000,0.000000,0,0,0,0,0,0,0,32892,255,32892,0,0,0,0,0,0,0,0,0,0,0,0,0,0,32891,32891,3,2,0,3,72,255,365,112,49,14,9,72,70,71,71,69,61,62,65,63,65,61,63,62,3,0,0,7,72,11,0,150,0,0,0,0,0,0,0,0,0,105,11,10,32,0,0,72,0,0,1,1,0,0,0,0,0,0,0,0,0,0,0,0,0,0,0,0,0,0,0,0,0,0,0,0,0,0,0,0,0,85,
264,0,0,32892,0,0,0.000000,2.356194,0.000000,0.000000,3.598550,0.000000,-0.696000,0.752000,0.660000,0.000000,0,0,0,0,0,0,0,32893,255,32893,0,0,0,0,0,0,0,0,0,0,0,0,0,0,32892,32892,0,2,0,3,72,255,365,112,49,14,9,72,71,71,71,68,61,62,65,63,65,61,63,62,3,0,0,7,72,11,0,150,0,0,0,0,0,0,0,0,0,105,11,10,32,0,0,72,0,0,1,1,0,0,0,0,0,0,0,0,0,0,0,0,0,0,0,0,0,0,0,0,0,0,0,0,0,0,0,0,0,85,
264,0,0,32893,0,0,0.000000,2.356194,0.000000,0.000000,3.598550,0.000000,-0.696000,0.752000,0.660000,0.000000,0,0,0,0,0,0,0,32894,255,32894,0,0,0,0,0,0,0,0,0,0,0,0,0,0,32893,32893,1,2,0,3,72,255,365,112,49,14,9,72,71,71,71,68,61,62,65,63,65,61,63,62,3,0,0,7,72,11,0,150,0,0,0,0,0,0,0,0,0,105,11,10,32,0,0,72,0,0,1,1,0,0,0,0,0,0,0,0,0,0,0,0,0,0,0,0,0,0,0,0,0,0,0,0,0,0,0,0,0,85,
264,0,0,32894,0,0,0.000000,2.356194,0.000000,0.000000,3.598550,0.000000,-0.696000,0.752000,0.660000,0.000000,0,0,0,0,0,0,0,32895,255,32895,0,0,0,0,0,0,0,0,0,0,0,0,0,0,32894,32894,2,2,0,3,72,255,365,112,49,14,9,72,71,71,71,68,61,62,65,63,65,61,63,62,3,0,0,7,72,11,0,150,0,0,0,0,0,0,0,0,0,105,11,10,32,0,0,72,0,0,1,1,0,0,0,0,0,0,0,0,0,0,0,0,0,0,0,0,0,0,0,0,0,0,0,0,0,0,0,0,0,85,
264,0,0,32895,0,0,0.000000,2.356194,0.000000,0.000000,3.598550,0.000000,-0.696000,0.752000,0.660000,0.000000,0,0,0,0,0,0,0,32896,255,32896,0,0,0,0,0,0,0,0,0,0,0,0,0,0,32895,32895,3,2,0,3,72,255,365,112,49,14,9,72,71,71,71,68,61,62,65,63,65,61,63,62,3,0,0,7,72,11,0,150,0,0,0,0,0,0,0,0,0,105,11,10,32,0,0,72,0,0,1,1,0,0,0,0,0,0,0,0,0,0,0,0,0,0,0,0,0,0,0,0,0,0,0,0,0,0,0,0,0,85,
264,0,0,32896,0,0,0.000000,2.356194,0.000000,0.000000,3.598550,0.000000,-0.696000,0.752000,0.660000,0.000000,0,0,0,0,0,0,0,32897,255,32897,0,0,0,0,0,0,0,0,0,0,0,0,0,0,32896,32896,0,2,0,3,72,255,365,112,49,14,9,72,71,71,70,68,61,62,65,63,65,61,63,62,3,0,0,7,72,11,0,150,0,0,0,0,0,0,0,0,0,105,11,10,32,0,0,72,0,0,1,1,0,0,0,0,0,0,0,0,0,0,0,0,0,0,0,0,0,0,0,0,0,0,0,0,0,0,0,0,0,85,
264,0,0,32897,0,0,0.000000,2.356194,0.000000,0.000000,3.598550,0.000000,-0.696000,0.752000,0.660000,0.000000,0,0,0,0,0,0,0,32898,255,32898,0,0,0,0,0,0,0,0,0,0,0,0,0,0,32897,32897,1,2,0,3,72,255,365,112,49,14,9,72,71,71,70,68,61,62,65,63,65,61,63,62,3,0,0,7,72,11,0,150,0,0,0,0,0,0,0,0,0,105,11,10,32,0,0,72,0,0,1,1,0,0,0,0,0,0,0,0,0,0,0,0,0,0,0,0,0,0,0,0,0,0,0,0,0,0,0,0,0,85,
264,0,0,32898,0,0,0.000000,2.356194,0.000000,0.000000,3.598550,0.000000,-0.696000,0.752000,0.660000,0.000000,0,0,0,0,0,0,0,32899,255,32899,0,0,0,0,0,0,0,0,0,0,0,0,0,0,32898,32898,2,2,0,3,72,255,365,112,49,14,9,72,71,71,70,68,61,62,65,63,65,61,63,62,3,0,0,7,72,11,0,150,0,0,0,0,0,0,0,0,0,105,11,10,32,0,0,72,0,0,1,1,0,0,0,0,0,0,0,0,0,0,0,0,0,0,0,0,0,0,0,0,0,0,0,0,0,0,0,0,0,85,
264,0,0,32899,0,0,0.000000,2.356194,0.000000,0.000000,3.598550,0.000000,-0.696000,0.752000,0.660000,0.000000,0,0,0,0,0,0,0,32900,255,32900,0,0,0,0,0,0,0,0,0,0,0,0,0,0,32899,32899,3,2,0,3,72,255,365,112,49,14,9,72,71,71,70,68,61,62,65,63,65,61,63,62,3,0,0,7,72,11,0,150,0,0,0,0,0,0,0,0,0,105,11,10,32,0,0,72,0,0,1,1,0,0,0,0,0,0,0,0,0,0,0,0,0,0,0,0,0,0,0,0,0,0,0,0,0,0,0,0,0,85,
264,0,0,32900,0,0,0.000000,2.356194,0.000000,0.000000,3.598550,0.000000,-0.696000,0.752000,0.660000,0.000000,0,0,0,0,0,0,0,32901,255,32901,0,0,0,0,0,0,0,0,0,0,0,0,0,0,32900,32900,0,2,0,3,72,255,365,112,49,14,9,72,71,72,71,69,61,62,65,62,65,61,63,62,3,0,0,7,72,11,0,150,0,0,0,0,0,0,0,0,0,105,11,10,32,0,0,72,0,0,1,1,0,0,0,0,0,0,0,0,0,0,0,0,0,0,0,0,0,0,0,0,0,0,0,0,0,0,0,0,0,85,
264,0,0,32901,0,0,0.000000,2.356194,0.000000,0.000000,3.598550,0.000000,-0.696000,0.752000,0.660000,0.000000,0,0,0,0,0,0,0,32902,255,32902,0,0,0,0,0,0,0,0,0,0,0,0,0,0,32901,32901,1,2,0,3,72,255,365,112,49,14,9,72,71,72,71,69,61,62,65,62,65,61,63,62,3,0,0,7,72,11,0,150,0,0,0,0,0,0,0,0,0,105,11,10,32,0,0,72,0,0,1,1,0,0,0,0,0,0,0,0,0,0,0,0,0,0,0,0,0,0,0,0,0,0,0,0,0,0,0,0,0,85,
264,0,0,32902,0,0,0.000000,2.356194,0.000000,0.000000,3.598550,0.000000,-0.696000,0.752000,0.660000,0.000000,0,0,0,0,0,0,0,32903,255,32903,0,0,0,0,0,0,0,0,0,0,0,0,0,0,32902,32902,2,2,0,3,72,255,365,112,49,14,9,72,71,72,71,69,61,62,65,62,65,61,63,62,3,0,0,7,72,11,0,150,0,0,0,0,0,0,0,0,0,105,11,10,32,0,0,72,0,0,1,1,0,0,0,0,0,0,0,0,0,0,0,0,0,0,0,0,0,0,0,0,0,0,0,0,0,0,0,0,0,85,
264,0,0,32903,0,0,0.000000,2.356194,0.000000,0.000000,3.598550,0.000000,-0.696000,0.752000,0.660000,0.000000,0,0,0,0,0,0,0,32904,255,32904,0,0,0,0,0,0,0,0,0,0,0,0,0,0,32903,32903,3,2,0,3,72,255,365,112,49,14,9,72,71,72,71,69,61,62,65,62,65,61,63,62,3,0,0,7,72,11,0,150,0,0,0,0,0,0,0,0,0,105,11,10,32,0,0,72,0,0,1,1,0,0,0,0,0,0,0,0,0,0,0,0,0,0,0,0,0,0,0,0,0,0,0,0,0,0,0,0,0,85,
264,0,0,32904,0,0,0.000000,2.356194,0.000000,0.000000,3.598550,0.000000,-0.696000,0.752000,0.660000,0.000000,0,0,0,0,0,0,0,32905,255,32905,0,0,0,0,0,0,0,0,0,0,0,0,0,0,32904,32904,0,2,0,3,72,255,365,112,49,14,9,72,71,71,71,69,61,62,65,63,65,61,63,62,3,0,0,7,72,11,0,150,0,0,0,0,0,0,0,0,0,105,11,10,32,0,0,72,0,0,1,1,0,0,0,0,0,0,0,0,0,0,0,0,0,0,0,0,0,0,0,0,0,0,0,0,0,0,0,0,0,85,
264,0,0,32905,0,0,0.000000,2.356194,0.000000,0.000000,3.598550,0.000000,-0.696000,0.752000,0.660000,0.000000,0,0,0,0,0,0,0,32906,255,32906,0,0,0,0,0,0,0,0,0,0,0,0,0,0,32905,32905,1,2,0,3,72,255,365,112,49,14,9,72,71,71,71,69,61,62,65,63,65,61,63,62,3,0,0,7,72,11,0,150,0,0,0,0,0,0,0,0,0,105,11,10,32,0,0,72,0,0,1,1,0,0,0,0,0,0,0,0,0,0,0,0,0,0,0,0,0,0,0,0,0,0,0,0,0,0,0,0,0,85,
264,0,0,32906,0,0,0.000000,2.356194,0.000000,0.000000,3.598550,0.000000,-0.696000,0.752000,0.660000,0.000000,0,0,0,0,0,0,0,32907,255,32907,0,0,0,0,0,0,0,0,0,0,0,0,0,0,32906,32906,2,2,0,3,72,255,365,112,49,14,9,72,71,71,71,69,61,62,65,63,65,61,63,62,3,0,0,7,72,11,0,150,0,0,0,0,0,0,0,0,0,105,11,10,32,0,0,72,0,0,1,1,0,0,0,0,0,0,0,0,0,0,0,0,0,0,0,0,0,0,0,0,0,0,0,0,0,0,0,0,0,85,
264,0,0,32907,0,0,0.000000,2.356194,0.000000,0.000000,3.598550,0.000000,-0.696000,0.752000,0.660000,0.000000,0,0,0,0,0,0,0,32908,255,32908,0,0,0,0,0,0,0,0,0,0,0,0,0,0,32907,32907,3,2,0,3,72,255,365,112,49,14,9,72,71,71,71,69,61,62,65,63,65,61,63,62,3,0,0,7,72,11,0,150,0,0,0,0,0,0,0,0,0,105,11,10,32,0,0,72,0,0,1,1,0,0,0,0,0,0,0,0,0,0,0,0,0,0,0,0,0,0,0,0,0,0,0,0,0,0,0,0,0,85,
264,0,0,32908,0,0,0.000000,2.356194,0.000000,0.000000,3.598550,0.000000,-0.696000,0.752000,0.660000,0.000000,0,0,0,0,0,0,0,32909,255,32909,0,0,0,0,0,0,0,0,0,0,0,0,0,0,32908,32908,0,2,0,3,72,255,365,112,49,14,9,72,71,71,71,69,61,62,65,63,65,61,63,62,3,0,0,7,72,11,0,150,0,0,0,0,0,0,0,0,0,105,11,10,32,0,0,72,0,0,1,1,0,0,0,0,0,0,0,0,0,0,0,0,0,0,0,0,0,0,0,0,0,0,0,0,0,0,0,0,0,85,
264,0,0,32909,0,0,0.000000,2.356194,0.000000,0.000000,3.598550,0.000000,-0.696000,0.752000,0.660000,0.000000,0,0,0,0,0,0,0,32910,255,32910,0,0,0,0,0,0,0,0,0,0,0,0,0,0,32909,32909,1,2,0,3,72,255,365,112,49,14,9,72,71,71,71,69,61,62,65,63,65,61,63,62,3,0,0,7,72,11,0,150,0,0,0,0,0,0,0,0,0,105,11,10,32,0,0,72,0,0,1,1,0,0,0,0,0,0,0,0,0,0,0,0,0,0,0,0,0,0,0,0,0,0,0,0,0,0,0,0,0,85,
264,0,0,32910,0,0,0.000000,2.356194,0.000000,0.000000,3.598550,0.000000,-0.696000,0.752000,0.660000,0.000000,0,0,0,0,0,0,0,32911,255,32911,0,0,0,0,0,0,0,0,0,0,0,0,0,0,32910,32910,2,2,0,3,72,255,365,112,49,14,9,72,71,71,71,69,61,62,65,63,65,61,63,62,3,0,0,7,72,11,0,150,0,0,0,0,0,0,0,0,0,105,11,10,32,0,0,72,0,0,1,1,0,0,0,0,0,0,0,0,0,0,0,0,0,0,0,0,0,0,0,0,0,0,0,0,0,0,0,0,0,85,
264,0,0,32911,0,0,0.000000,2.356194,0.000000,0.000000,3.598550,0.000000,-0.696000,0.752000,0.660000,0.000000,0,0,0,0,0,0,0,32912,255,32912,0,0,0,0,0,0,0,0,0,0,0,0,0,0,32911,32911,3,2,0,3,72,255,365,112,49,14,9,72,71,71,71,69,61,62,65,63,65,61,63,62,3,0,0,7,72,11,0,150,0,0,0,0,0,0,0,0,0,105,11,10,32,0,0,72,0,0,1,1,0,0,0,0,0,0,0,0,0,0,0,0,0,0,0,0,0,0,0,0,0,0,0,0,0,0,0,0,0,85,
264,0,0,32912,0,0,0.000000,2.356194,0.000000,0.000000,3.598550,0.000000,-0.696000,0.752000,0.660000,0.000000,0,0,0,0,0,0,0,32913,255,32913,0,0,0,0,0,0,0,0,0,0,0,0,0,0,32912,32912,0,2,0,3,72,255,365,112,49,14,9,72,71,71,71,69,61,62,65,63,65,61,63,62,3,0,0,7,72,11,0,150,0,0,0,0,0,0,0,0,0,105,11,10,32,0,0,72,0,0,1,1,0,0,0,0,0,0,0,0,0,0,0,0,0,0,0,0,0,0,0,0,0,0,0,0,0,0,0,0,0,85,
264,0,0,32913,0,0,0.000000,2.356194,0.000000,0.000000,3.598550,0.000000,-0.696000,0.752000,0.660000,0.000000,0,0,0,0,0,0,0,32914,255,32914,0,0,0,0,0,0,0,0,0,0,0,0,0,0,32913,32913,1,2,0,3,72,255,365,112,49,14,9,72,71,71,71,69,61,62,65,63,65,61,63,62,3,0,0,7,72,11,0,150,0,0,0,0,0,0,0,0,0,105,11,10,32,0,0,72,0,0,1,1,0,0,0,0,0,0,0,0,0,0,0,0,0,0,0,0,0,0,0,0,0,0,0,0,0,0,0,0,0,85,
264,0,0,32914,0,0,0.000000,2.356194,0.000000,0.000000,3.598550,0.000000,-0.696000,0.752000,0.660000,0.000000,0,0,0,0,0,0,0,32915,255,32915,0,0,0,0,0,0,0,0,0,0,0,0,0,0,32914,32914,2,2,0,3,72,255,365,112,49,14,9,72,71,71,71,69,61,62,65,63,65,61,63,62,3,0,0,7,72,11,0,150,0,0,0,0,0,0,0,0,0,105,11,10,32,0,0,72,0,0,1,1,0,0,0,0,0,0,0,0,0,0,0,0,0,0,0,0,0,0,0,0,0,0,0,0,0,0,0,0,0,85,
264,0,0,32915,0,0,0.000000,2.356194,0.000000,0.000000,3.598550,0.000000,-0.696000,0.752000,0.660000,0.000000,0,0,0,0,0,0,0,32916,255,32916,0,0,0,0,0,0,0,0,0,0,0,0,0,0,32915,32915,3,2,0,3,72,255,365,112,49,14,9,72,71,71,71,69,61,62,65,63,65,61,63,62,3,0,0,7,72,11,0,150,0,0,0,0,0,0,0,0,0,105,11,10,32,0,0,72,0,0,1,1,0,0,0,0,0,0,0,0,0,0,0,0,0,0,0,0,0,0,0,0,0,0,0,0,0,0,0,0,0,85,
264,0,0,32916,0,0,0.000000,2.356194,0.000000,0.000000,3.598550,0.000000,-0.696000,0.752000,0.660000,0.000000,0,0,0,0,0,0,0,32917,255,32917,0,0,0,0,0,0,0,0,0,0,0,0,0,0,32916,32916,0,2,0,3,72,255,365,112,49,14,9,72,71,71,71,69,61,62,65,62,65,61,63,62,3,0,0,7,72,11,0,150,0,0,0,0,0,0,0,0,0,105,11,10,32,0,0,72,0,0,1,1,0,0,0,0,0,0,0,0,0,0,0,0,0,0,0,0,0,0,0,0,0,0,0,0,0,0,0,0,0,85,
264,0,0,32917,0,0,0.000000,2.356194,0.000000,0.000000,3.598550,0.000000,-0.696000,0.752000,0.660000,0.000000,0,0,0,0,0,0,0,32918,255,32918,0,0,0,0,0,0,0,0,0,0,0,0,0,0,32917,32917,1,2,0,3,72,255,365,112,49,14,9,72,71,71,71,69,61,62,65,62,65,61,63,62,3,0,0,7,72,11,0,150,0,0,0,0,0,0,0,0,0,105,11,10,32,0,0,72,0,0,1,1,0,0,0,0,0,0,0,0,0,0,0,0,0,0,0,0,0,0,0,0,0,0,0,0,0,0,0,0,0,85,
264,0,0,32918,0,0,0.000000,2.356194,0.000000,0.000000,3.598550,0.000000,-0.696000,0.752000,0.660000,0.000000,0,0,0,0,0,0,0,32919,255,32919,0,0,0,0,0,0,0,0,0,0,0,0,0,0,32918,32918,2,2,0,3,72,255,365,112,49,14,9,72,71,71,71,69,61,62,65,62,65,61,63,62,3,0,0,7,72,11,0,150,0,0,0,0,0,0,0,0,0,105,11,10,32,0,0,72,0,0,1,1,0,0,0,0,0,0,0,0,0,0,0,0,0,0,0,0,0,0,0,0,0,0,0,0,0,0,0,0,0,85,
264,0,0,32919,0,0,0.000000,2.356194,0.000000,0.000000,3.598550,0.000000,-0.696000,0.752000,0.660000,0.000000,0,0,0,0,0,0,0,32920,255,32920,0,0,0,0,0,0,0,0,0,0,0,0,0,0,32919,32919,3,2,0,3,72,255,365,112,49,14,9,72,71,71,71,69,61,62,65,62,65,61,63,62,3,0,0,7,72,11,0,150,0,0,0,0,0,0,0,0,0,105,11,10,32,0,0,72,0,0,1,1,0,0,0,0,0,0,0,0,0,0,0,0,0,0,0,0,0,0,0,0,0,0,0,0,0,0,0,0,0,85,
264,0,0,32920,0,0,0.000000,2.356194,0.000000,0.000000,3.598550,0.000000,-0.696000,0.752000,0.660000,0.000000,0,0,0,0,0,0,0,32921,255,32921,0,0,0,0,0,0,0,0,0,0,0,0,0,0,32920,32920,0,2,0,3,72,255,365,112,49,14,9,72,71,71,71,69,61,62,65,63,65,61,63,62,3,0,0,7,72,11,0,150,0,0,0,0,0,0,0,0,0,105,11,10,32,0,0,72,0,0,1,1,0,0,0,0,0,0,0,0,0,0,0,0,0,0,0,0,0,0,0,0,0,0,0,0,0,0,0,0,0,85,
264,0,0,32921,0,0,0.000000,2.356194,0.000000,0.000000,3.598550,0.000000,-0.696000,0.752000,0.660000,0.000000,0,0,0,0,0,0,0,32922,255,32922,0,0,0,0,0,0,0,0,0,0,0,0,0,0,32921,32921,1,2,0,3,72,255,365,112,49,14,9,72,71,71,71,69,61,62,65,63,65,61,63,62,3,0,0,7,72,11,0,150,0,0,0,0,0,0,0,0,0,105,11,10,32,0,0,72,0,0,1,1,0,0,0,0,0,0,0,0,0,0,0,0,0,0,0,0,0,0,0,0,0,0,0,0,0,0,0,0,0,85,
264,0,0,32922,0,0,0.000000,2.356194,0.000000,0.000000,3.598550,0.000000,-0.696000,0.752000,0.660000,0.000000,0,0,0,0,0,0,0,32923,255,32923,0,0,0,0,0,0,0,0,0,0,0,0,0,0,32922,32922,2,2,0,3,72,255,365,112,49,14,9,72,71,71,71,69,61,62,65,63,65,61,63,62,3,0,0,7,72,11,0,150,0,0,0,0,0,0,0,0,0,105,11,10,32,0,0,72,0,0,1,1,0,0,0,0,0,0,0,0,0,0,0,0,0,0,0,0,0,0,0,0,0,0,0,0,0,0,0,0,0,85,
264,0,0,32923,0,0,0.000000,2.356194,0.000000,0.000000,3.598550,0.000000,-0.696000,0.752000,0.660000,0.000000,0,0,0,0,0,0,0,32924,255,32924,0,0,0,0,0,0,0,0,0,0,0,0,0,0,32923,32923,3,2,0,3,72,255,365,112,49,14,9,72,71,71,71,69,61,62,65,63,65,61,63,62,3,0,0,7,72,11,0,150,0,0,0,0,0,0,0,0,0,105,11,10,32,0,0,72,0,0,1,1,0,0,0,0,0,0,0,0,0,0,0,0,0,0,0,0,0,0,0,0,0,0,0,0,0,0,0,0,0,85,
264,0,0,32924,0,0,0.000000,2.356194,0.000000,0.000000,3.598550,0.000000,-0.696000,0.752000,0.660000,0.000000,0,0,0,0,0,0,0,32925,255,32925,0,0,0,0,0,0,0,0,0,0,0,0,0,0,32924,32924,0,2,0,3,72,255,365,112,49,14,9,72,71,71,71,69,61,62,65,63,66,61,63,62,3,0,0,7,72,11,0,150,0,0,0,0,0,0,0,0,0,105,11,10,32,0,0,72,0,0,1,1,0,0,0,0,0,0,0,0,0,0,0,0,0,0,0,0,0,0,0,0,0,0,0,0,0,0,0,0,0,85,
264,0,0,32925,0,0,0.000000,2.356194,0.000000,0.000000,3.598550,0.000000,-0.696000,0.752000,0.660000,0.000000,0,0,0,0,0,0,0,32926,255,32926,0,0,0,0,0,0,0,0,0,0,0,0,0,0,32925,32925,1,2,0,3,72,255,365,112,49,14,9,72,71,71,71,69,61,62,65,63,66,61,63,62,3,0,0,7,72,11,0,150,0,0,0,0,0,0,0,0,0,105,11,10,32,0,0,72,0,0,1,1,0,0,0,0,0,0,0,0,0,0,0,0,0,0,0,0,0,0,0,0,0,0,0,0,0,0,0,0,0,85,
264,0,0,32926,0,0,0.000000,2.356194,0.000000,0.000000,3.598550,0.000000,-0.696000,0.752000,0.660000,0.000000,0,0,0,0,0,0,0,32927,255,32927,0,0,0,0,0,0,0,0,0,0,0,0,0,0,32926,32926,2,2,0,3,72,255,365,112,49,14,9,72,71,71,71,69,61,62,65,63,66,61,63,62,3,0,0,7,72,11,0,150,0,0,0,0,0,0,0,0,0,105,11,10,32,0,0,72,0,0,1,1,0,0,0,0,0,0,0,0,0,0,0,0,0,0,0,0,0,0,0,0,0,0,0,0,0,0,0,0,0,85,
264,0,0,32927,0,0,0.000000,2.356194,0.000000,0.000000,3.598550,0.000000,-0.696000,0.752000,0.660000,0.000000,0,0,0,0,0,0,0,32928,255,32928,0,0,0,0,0,0,0,0,0,0,0,0,0,0,32927,32927,3,2,0,3,72,255,365,112,49,14,9,72,71,71,71,69,61,62,65,63,66,61,63,62,3,0,0,7,72,11,0,150,0,0,0,0,0,0,0,0,0,105,11,10,32,0,0,72,0,0,1,1,0,0,0,0,0,0,0,0,0,0,0,0,0,0,0,0,0,0,0,0,0,0,0,0,0,0,0,0,0,85,
264,0,0,32928,0,0,0.000000,2.356194,0.000000,0.000000,3.598550,0.000000,-0.696000,0.752000,0.660000,0.000000,0,0,0,0,0,0,0,32929,255,32929,0,0,0,0,0,0,0,0,0,0,0,0,0,0,32928,32928,0,2,0,3,72,255,365,112,49,14,9,72,71,71,71,68,61,62,65,63,65,61,63,62,3,0,0,7,72,11,0,150,0,0,0,0,0,0,0,0,0,105,11,10,32,0,0,72,0,0,1,1,0,0,0,0,0,0,0,0,0,0,0,0,0,0,0,0,0,0,0,0,0,0,0,0,0,0,0,0,0,85,
264,0,0,32929,0,0,0.000000,2.356194,0.000000,0.000000,3.598550,0.000000,-0.696000,0.752000,0.660000,0.000000,0,0,0,0,0,0,0,32930,255,32930,0,0,0,0,0,0,0,0,0,0,0,0,0,0,32929,32929,1,2,0,3,72,255,365,112,49,14,9,72,71,71,71,68,61,62,65,63,65,61,63,62,3,0,0,7,72,11,0,150,0,0,0,0,0,0,0,0,0,105,11,10,32,0,0,72,0,0,1,1,0,0,0,0,0,0,0,0,0,0,0,0,0,0,0,0,0,0,0,0,0,0,0,0,0,0,0,0,0,85,
264,0,0,32930,0,0,0.000000,2.356194,0.000000,0.000000,3.598550,0.000000,-0.696000,0.752000,0.660000,0.000000,0,0,0,0,0,0,0,32931,255,32931,0,0,0,0,0,0,0,0,0,0,0,0,0,0,32930,32930,2,2,0,3,72,255,365,112,49,14,9,72,71,71,71,68,61,62,65,63,65,61,63,62,3,0,0,7,72,11,0,150,0,0,0,0,0,0,0,0,0,105,11,10,32,0,0,72,0,0,1,1,0,0,0,0,0,0,0,0,0,0,0,0,0,0,0,0,0,0,0,0,0,0,0,0,0,0,0,0,0,85,
264,0,0,32931,0,0,0.000000,2.356194,0.000000,0.000000,3.598550,0.000000,-0.696000,0.752000,0.660000,0.000000,0,0,0,0,0,0,0,32932,255,32932,0,0,0,0,0,0,0,0,0,0,0,0,0,0,32931,32931,3,2,0,3,72,255,365,112,49,14,9,72,71,71,71,68,61,62,65,63,65,61,63,62,3,0,0,7,72,11,0,150,0,0,0,0,0,0,0,0,0,105,11,10,32,0,0,72,0,0,1,1,0,0,0,0,0,0,0,0,0,0,0,0,0,0,0,0,0,0,0,0,0,0,0,0,0,0,0,0,0,85,
264,0,0,32932,0,0,0.000000,2.356194,0.000000,0.000000,3.598550,0.000000,-0.696000,0.752000,0.660000,0.000000,0,0,0,0,0,0,0,32933,255,32933,0,0,0,0,0,0,0,0,0,0,0,0,0,0,32932,32932,0,2,0,3,72,255,365,112,49,14,9,72,70,72,71,69,61,62,65,63,65,61,63,62,3,0,0,7,72,11,0,150,0,0,0,0,0,0,0,0,0,105,11,10,32,0,0,72,0,0,1,1,0,0,0,0,0,0,0,0,0,0,0,0,0,0,0,0,0,0,0,0,0,0,0,0,0,0,0,0,0,85,
264,0,0,32933,0,0,0.000000,2.356194,0.000000,0.000000,3.598550,0.000000,-0.696000,0.752000,0.660000,0.000000,0,0,0,0,0,0,0,32934,255,32934,0,0,0,0,0,0,0,0,0,0,0,0,0,0,32933,32933,1,2,0,3,72,255,365,112,49,14,9,72,70,72,71,69,61,62,65,63,65,61,63,62,3,0,0,7,72,11,0,150,0,0,0,0,0,0,0,0,0,105,11,10,32,0,0,72,0,0,1,1,0,0,0,0,0,0,0,0,0,0,0,0,0,0,0,0,0,0,0,0,0,0,0,0,0,0,0,0,0,85,
264,0,0,32934,0,0,0.000000,2.356194,0.000000,0.000000,3.598550,0.000000,-0.696000,0.752000,0.660000,0.000000,0,0,0,0,0,0,0,32935,255,32935,0,0,0,0,0,0,0,0,0,0,0,0,0,0,32934,32934,2,2,0,3,72,255,365,112,49,14,9,72,70,72,71,69,61,62,65,63,65,61,63,62,3,0,0,7,72,11,0,150,0,0,0,0,0,0,0,0,0,105,11,10,32,0,0,72,0,0,1,1,0,0,0,0,0,0,0,0,0,0,0,0,0,0,0,0,0,0,0,0,0,0,0,0,0,0,0,0,0,85,
264,0,0,32935,0,0,0.000000,2.356194,0.000000,0.000000,3.598550,0.000000,-0.696000,0.752000,0.660000,0.000000,0,0,0,0,0,0,0,32936,255,32936,0,0,0,0,0,0,0,0,0,0,0,0,0,0,32935,32935,3,2,0,3,72,255,365,112,49,14,9,72,70,72,71,69,61,62,65,63,65,61,63,62,3,0,0,7,72,11,0,150,0,0,0,0,0,0,0,0,0,105,11,10,32,0,0,72,0,0,1,1,0,0,0,0,0,0,0,0,0,0,0,0,0,0,0,0,0,0,0,0,0,0,0,0,0,0,0,0,0,85,
264,0,0,32936,0,0,0.000000,2.356194,0.000000,0.000000,3.598550,0.000000,-0.696000,0.752000,0.660000,0.000000,0,0,0,0,0,0,0,32937,255,32937,0,0,0,0,0,0,0,0,0,0,0,0,0,0,32936,32936,0,2,0,3,72,255,365,112,49,14,9,72,71,72,71,69,61,62,65,63,65,61,63,62,3,0,0,7,72,11,0,150,0,0,0,0,0,0,0,0,0,105,11,10,32,0,0,72,0,0,1,1,0,0,0,0,0,0,0,0,0,0,0,0,0,0,0,0,0,0,0,0,0,0,0,0,0,0,0,0,0,85,
264,0,0,32937,0,0,0.000000,2.356194,0.000000,0.000000,3.598550,0.000000,-0.696000,0.752000,0.660000,0.000000,0,0,0,0,0,0,0,32938,255,32938,0,0,0,0,0,0,0,0,0,0,0,0,0,0,32937,32937,1,2,0,3,72,255,365,112,49,14,9,72,71,72,71,69,61,62,65,63,65,61,63,62,3,0,0,7,72,11,0,150,0,0,0,0,0,0,0,0,0,105,11,10,32,0,0,72,0,0,1,1,0,0,0,0,0,0,0,0,0,0,0,0,0,0,0,0,0,0,0,0,0,0,0,0,0,0,0,0,0,85,
264,0,0,32938,0,0,0.000000,2.356194,0.000000,0.000000,3.598550,0.000000,-0.696000,0.752000,0.660000,0.000000,0,0,0,0,0,0,0,32939,255,32939,0,0,0,0,0,0,0,0,0,0,0,0,0,0,32938,32938,2,2,0,3,72,255,365,112,49,14,9,72,71,72,71,69,61,62,65,63,65,61,63,62,3,0,0,7,72,11,0,150,0,0,0,0,0,0,0,0,0,105,11,10,32,0,0,72,0,0,1,1,0,0,0,0,0,0,0,0,0,0,0,0,0,0,0,0,0,0,0,0,0,0,0,0,0,0,0,0,0,85,
264,0,0,32939,0,0,0.000000,2.356194,0.000000,0.000000,3.598550,0.000000,-0.696000,0.752000,0.660000,0.000000,0,0,0,0,0,0,0,32940,255,32940,0,0,0,0,0,0,0,0,0,0,0,0,0,0,32939,32939,3,2,0,3,72,255,365,112,49,14,9,72,71,72,71,69,61,62,65,63,65,61,63,62,3,0,0,7,72,11,0,150,0,0,0,0,0,0,0,0,0,105,11,10,32,0,0,72,0,0,1,1,0,0,0,0,0,0,0,0,0,0,0,0,0,0,0,0,0,0,0,0,0,0,0,0,0,0,0,0,0,85,
264,0,0,32940,0,0,0.000000,2.356194,0.000000,0.000000,3.598550,0.000000,-0.696000,0.752000,0.660000,0.000000,0,0,0,0,0,0,0,32941,255,32941,0,0,0,0,0,0,0,0,0,0,0,0,0,0,32940,32940,0,2,0,3,72,255,365,112,49,14,9,72,71,71,71,68,61,62,65,63,65,61,63,62,3,0,0,7,72,11,0,150,0,0,0,0,0,0,0,0,0,105,11,10,32,0,0,72,0,0,1,1,0,0,0,0,0,0,0,0,0,0,0,0,0,0,0,0,0,0,0,0,0,0,0,0,0,0,0,0,0,85,
264,0,0,32941,0,0,0.000000,2.356194,0.000000,0.000000,3.598550,0.000000,-0.696000,0.752000,0.660000,0.000000,0,0,0,0,0,0,0,32942,255,32942,0,0,0,0,0,0,0,0,0,0,0,0,0,0,32941,32941,1,2,0,3,72,255,365,112,49,14,9,72,71,71,71,68,61,62,65,63,65,61,63,62,3,0,0,7,72,11,0,150,0,0,0,0,0,0,0,0,0,105,11,10,32,0,0,72,0,0,1,1,0,0,0,0,0,0,0,0,0,0,0,0,0,0,0,0,0,0,0,0,0,0,0,0,0,0,0,0,0,85,
264,0,0,32942,0,0,0.000000,2.356194,0.000000,0.000000,3.598550,0.000000,-0.696000,0.752000,0.660000,0.000000,0,0,0,0,0,0,0,32943,255,32943,0,0,0,0,0,0,0,0,0,0,0,0,0,0,32942,32942,2,2,0,3,72,255,365,112,49,14,9,72,71,71,71,68,61,62,65,63,65,61,63,62,3,0,0,7,72,11,0,150,0,0,0,0,0,0,0,0,0,105,11,10,32,0,0,72,0,0,1,1,0,0,0,0,0,0,0,0,0,0,0,0,0,0,0,0,0,0,0,0,0,0,0,0,0,0,0,0,0,85,
264,0,0,32943,0,0,0.000000,2.356194,0.000000,0.000000,3.598550,0.000000,-0.696000,0.752000,0.660000,0.000000,0,0,0,0,0,0,0,32944,255,32944,0,0,0,0,0,0,0,0,0,0,0,0,0,0,32943,32943,3,2,0,3,72,255,365,112,49,14,9,72,71,71,71,68,61,62,65,63,65,61,63,62,3,0,0,7,72,11,0,150,0,0,0,0,0,0,0,0,0,105,11,10,32,0,0,72,0,0,1,1,0,0,0,0,0,0,0,0,0,0,0,0,0,0,0,0,0,0,0,0,0,0,0,0,0,0,0,0,0,85,
264,0,0,32944,0,0,0.000000,2.356194,0.000000,0.000000,3.598550,0.000000,-0.696000,0.752000,0.660000,0.000000,0,0,0,0,0,0,0,32945,255,32945,0,0,0,0,0,0,0,0,0,0,0,0,0,0,32944,32944,0,2,0,3,72,255,365,112,49,14,9,72,71,71,71,69,61,62,65,62,65,61,63,62,3,0,0,7,72,11,0,150,0,0,0,0,0,0,0,0,0,105,11,10,32,0,0,72,0,0,1,1,0,0,0,0,0,0,0,0,0,0,0,0,0,0,0,0,0,0,0,0,0,0,0,0,0,0,0,0,0,85,
264,0,0,32945,0,0,0.000000,2.356194,0.000000,0.000000,3.598550,0.000000,-0.696000,0.752000,0.660000,0.000000,0,0,0,0,0,0,0,32946,255,32946,0,0,0,0,0,0,0,0,0,0,0,0,0,0,32945,32945,1,2,0,3,72,255,365,112,49,14,9,72,71,71,71,69,61,62,65,62,65,61,63,62,3,0,0,7,72,11,0,150,0,0,0,0,0,0,0,0,0,105,11,10,32,0,0,72,0,0,1,1,0,0,0,0,0,0,0,0,0,0,0,0,0,0,0,0,0,0,0,0,0,0,0,0,0,0,0,0,0,85,
264,0,0,32946,0,0,0.000000,2.356194,0.000000,0.000000,3.598550,0.000000,-0.696000,0.752000,0.660000,0.000000,0,0,0,0,0,0,0,32947,255,32947,0,0,0,0,0,0,0,0,0,0,0,0,0,0,32946,32946,2,2,0,3,72,255,365,112,49,14,9,72,71,71,71,69,61,62,65,62,65,61,63,62,3,0,0,7,72,11,0,150,0,0,0,0,0,0,0,0,0,105,11,10,32,0,0,72,0,0,1,1,0,0,0,0,0,0,0,0,0,0,0,0,0,0,0,0,0,0,0,0,0,0,0,0,0,0,0,0,0,85,
264,0,0,32947,0,0,0.000000,2.356194,0.000000,0.000000,3.598550,0.000000,-0.696000,0.752000,0.660000,0.000000,0,0,0,0,0,0,0,32948,255,32948,0,0,0,0,0,0,0,0,0,0,0,0,0,0,32947,32947,3,2,0,3,72,255,365,112,49,14,9,72,71,71,71,69,61,62,65,62,65,61,63,62,3,0,0,7,72,11,0,150,0,0,0,0,0,0,0,0,0,105,11,10,32,0,0,72,0,0,1,1,0,0,0,0,0,0,0,0,0,0,0,0,0,0,0,0,0,0,0,0,0,0,0,0,0,0,0,0,0,85,
264,0,0,32948,0,0,0.000000,2.356194,0.000000,0.000000,3.598550,0.000000,-0.696000,0.752000,0.660000,0.000000,0,0,0,0,0,0,0,32949,255,32949,0,0,0,0,0,0,0,0,0,0,0,0,0,0,32948,32948,0,2,0,3,72,255,365,112,49,14,9,72,70,71,71,69,61,62,65,63,65,61,63,62,3,0,0,7,72,11,0,150,0,0,0,0,0,0,0,0,0,105,11,10,32,0,0,72,0,0,1,1,0,0,0,0,0,0,0,0,0,0,0,0,0,0,0,0,0,0,0,0,0,0,0,0,0,0,0,0,0,85,
264,0,0,32949,0,0,0.000000,2.356194,0.000000,0.000000,3.598550,0.000000,-0.696000,0.752000,0.660000,0.000000,0,0,0,0,0,0,0,32950,255,32950,0,0,0,0,0,0,0,0,0,0,0,0,0,0,32949,32949,1,2,0,3,72,255,365,112,49,14,9,72,70,71,71,69,61,62,65,63,65,61,63,62,3,0,0,7,72,11,0,150,0,0,0,0,0,0,0,0,0,105,11,10,32,0,0,72,0,0,1,1,0,0,0,0,0,0,0,0,0,0,0,0,0,0,0,0,0,0,0,0,0,0,0,0,0,0,0,0,0,85,
264,0,0,32950,0,0,0.000000,2.356194,0.000000,0.000000,3.598550,0.000000,-0.696000,0.752000,0.660000,0.000000,0,0,0,0,0,0,0,32951,255,32951,0,0,0,0,0,0,0,0,0,0,0,0,0,0,32950,32950,2,2,0,3,72,255,365,112,49,14,9,72,70,71,71,69,61,62,65,63,65,61,63,62,3,0,0,7,72,11,0,150,0,0,0,0,0,0,0,0,0,105,11,10,32,0,0,72,0,0,1,1,0,0,0,0,0,0,0,0,0,0,0,0,0,0,0,0,0,0,0,0,0,0,0,0,0,0,0,0,0,85,
264,0,0,32951,0,0,0.000000,2.356194,0.000000,0.000000,3.598550,0.000000,-0.696000,0.752000,0.660000,0.000000,0,0,0,0,0,0,0,32952,255,32952,0,0,0,0,0,0,0,0,0,0,0,0,0,0,32951,32951,3,2,0,3,72,255,365,112,49,14,9,72,70,71,71,69,61,62,65,63,65,61,63,62,3,0,0,7,72,11,0,150,0,0,0,0,0,0,0,0,0,105,11,10,32,0,0,72,0,0,1,1,0,0,0,0,0,0,0,0,0,0,0,0,0,0,0,0,0,0,0,0,0,0,0,0,0,0,0,0,0,85,
264,0,0,32952,0,0,0.000000,2.356194,0.000000,0.000000,3.598550,0.000000,-0.696000,0.752000,0.660000,0.000000,0,0,0,0,0,0,0,32953,255,32953,0,0,0,0,0,0,0,0,0,0,0,0,0,0,32952,32952,0,2,0,3,72,255,365,112,49,14,9,72,71,71,71,69,61,62,65,63,65,61,63,62,3,0,0,7,72,11,0,150,0,0,0,0,0,0,0,0,0,105,11,10,32,0,0,72,0,0,1,1,0,0,0,0,0,0,0,0,0,0,0,0,0,0,0,0,0,0,0,0,0,0,0,0,0,0,0,0,0,85,
264,0,0,32953,0,0,0.000000,2.356194,0.000000,0.000000,3.598550,0.000000,-0.696000,0.752000,0.660000,0.000000,0,0,0,0,0,0,0,32954,255,32954,0,0,0,0,0,0,0,0,0,0,0,0,0,0,32953,32953,1,2,0,3,72,255,365,112,49,14,9,72,71,71,71,69,61,62,65,63,65,61,63,62,3,0,0,7,72,11,0,150,0,0,0,0,0,0,0,0,0,105,11,10,32,0,0,72,0,0,1,1,0,0,0,0,0,0,0,0,0,0,0,0,0,0,0,0,0,0,0,0,0,0,0,0,0,0,0,0,0,85,
264,0,0,32954,0,0,0.000000,2.356194,0.000000,0.000000,3.598550,0.000000,-0.696000,0.752000,0.660000,0.000000,0,0,0,0,0,0,0,32955,255,32955,0,0,0,0,0,0,0,0,0,0,0,0,0,0,32954,32954,2,2,0,3,72,255,365,112,49,14,9,72,71,71,71,69,61,62,65,63,65,61,63,62,3,0,0,7,72,11,0,150,0,0,0,0,0,0,0,0,0,105,11,10,32,0,0,72,0,0,1,1,0,0,0,0,0,0,0,0,0,0,0,0,0,0,0,0,0,0,0,0,0,0,0,0,0,0,0,0,0,85,
264,0,0,32955,0,0,0.000000,2.356194,0.000000,0.000000,3.598550,0.000000,-0.696000,0.752000,0.660000,0.000000,0,0,0,0,0,0,0,32956,255,32956,0,0,0,0,0,0,0,0,0,0,0,0,0,0,32955,32955,3,2,0,3,72,255,365,112,49,14,9,72,71,71,71,69,61,62,65,63,65,61,63,62,3,0,0,7,72,11,0,150,0,0,0,0,0,0,0,0,0,105,11,10,32,0,0,72,0,0,1,1,0,0,0,0,0,0,0,0,0,0,0,0,0,0,0,0,0,0,0,0,0,0,0,0,0,0,0,0,0,85,
264,0,0,32956,0,0,0.000000,2.356194,0.000000,0.000000,3.598550,0.000000,-0.696000,0.752000,0.660000,0.000000,0,0,0,0,0,0,0,32957,255,32957,0,0,0,0,0,0,0,0,0,0,0,0,0,0,32956,32956,0,2,0,3,72,255,365,112,49,14,9,72,71,71,71,69,61,62,65,63,65,61,63,62,3,0,0,7,72,11,0,150,0,0,0,0,0,0,0,0,0,105,11,10,32,0,0,72,0,0,1,1,0,0,0,0,0,0,0,0,0,0,0,0,0,0,0,0,0,0,0,0,0,0,0,0,0,0,0,0,0,85,
264,0,0,32957,0,0,0.000000,2.356194,0.000000,0.000000,3.598550,0.000000,-0.696000,0.752000,0.660000,0.000000,0,0,0,0,0,0,0,32958,255,32958,0,0,0,0,0,0,0,0,0,0,0,0,0,0,32957,32957,1,2,0,3,72,255,365,112,49,14,9,72,71,71,71,69,61,62,65,63,65,61,63,61,3,0,0,7,72,11,0,150,0,0,0,0,0,0,0,0,0,105,11,10,32,0,0,72,0,0,1,1,0,0,0,0,0,0,0,0,0,0,0,0,0,0,0,0,0,0,0,0,0,0,0,0,0,0,0,0,0,85,
264,0,0,32958,0,0,0.000000,2.356194,0.000000,0.000000,3.598550,0.000000,-0.696000,0.752000,0.660000,0.000000,0,0,0,0,0,0,0,32959,255,32959,0,0,0,0,0,0,0,0,0,0,0,0,0,0,32958,32958,2,2,0,3,72,255,365,112,49,14,9,72,71,71,71,69,61,62,65,63,65,61,63,61,3,0,0,7,72,11,0,150,0,0,0,0,0,0,0,0,0,105,11,10,32,0,0,72,0,0,1,1,0,0,0,0,0,0,0,0,0,0,0,0,0,0,0,0,0,0,0,0,0,0,0,0,0,0,0,0,0,85,
264,0,0,32959,0,0,0.000000,2.356194,0.000000,0.000000,3.598550,0.000000,-0.696000,0.752000,0.660000,0.000000,0,0,0,0,0,0,0,32960,255,32960,0,0,0,0,0,0,0,0,0,0,0,0,0,0,32959,32959,3,2,0,3,72,255,365,112,49,14,9,72,71,71,71,69,61,62,65,63,65,61,63,61,3,0,0,7,72,11,0,150,0,0,0,0,0,0,0,0,0,105,11,10,32,0,0,72,0,0,1,1,0,0,0,0,0,0,0,0,0,0,0,0,0,0,0,0,0,0,0,0,0,0,0,0,0,0,0,0,0,85,
264,0,0,32960,0,0,0.000000,2.356194,0.000000,0.000000,3.598550,0.000000,-0.696000,0.752000,0.660000,0.000000,0,0,0,0,0,0,0,32961,255,32961,0,0,0,0,0,0,0,0,0,0,0,0,0,0,32960,32960,0,2,0,3,72,255,365,112,49,14,9,72,70,71,70,69,61,62,65,63,65,61,63,61,3,0,0,7,72,11,0,150,0,0,0,0,0,0,0,0,0,105,11,10,32,0,0,72,0,0,1,1,0,0,0,0,0,0,0,0,0,0,0,0,0,0,0,0,0,0,0,0,0,0,0,0,0,0,0,0,0,85,
264,0,0,32961,0,0,0.000000,2.356194,0.000000,0.000000,3.598550,0.000000,-0.696000,0.752000,0.660000,0.000000,0,0,0,0,0,0,0,32962,255,32962,0,0,0,0,0,0,0,0,0,0,0,0,0,0,32961,32961,1,2,0,3,72,255,365,112,49,14,9,72,70,71,70,69,61,62,65,63,65,61,63,61,3,0,0,7,72,11,0,150,0,0,0,0,0,0,0,0,0,105,11,10,32,0,0,72,0,0,1,1,0,0,0,0,0,0,0,0,0,0,0,0,0,0,0,0,0,0,0,0,0,0,0,0,0,0,0,0,0,85,
264,0,0,32962,0,0,0.000000,2.356194,0.000000,0.000000,3.598550,0.000000,-0.696000,0.752000,0.660000,0.000000,0,0,0,0,0,0,0,32963,255,32963,0,0,0,0,0,0,0,0,0,0,0,0,0,0,32962,32962,2,2,0,3,72,255,365,112,49,14,9,72,70,71,70,69,61,62,65,63,65,61,63,61,3,0,0,7,72,11,0,150,0,0,0,0,0,0,0,0,0,105,11,10,32,0,0,72,0,0,1,1,0,0,0,0,0,0,0,0,0,0,0,0,0,0,0,0,0,0,0,0,0,0,0,0,0,0,0,0,0,85,
264,0,0,32963,0,0,0.000000,2.356194,0.000000,0.000000,3.598550,0.000000,-0.696000,0.752000,0.660000,0.000000,0,0,0,0,0,0,0,32964,255,32964,0,0,0,0,0,0,0,0,0,0,0,0,0,0,32963,32963,3,2,0,3,72,255,365,112,49,14,9,72,70,71,70,69,61,62,65,63,65,61,63,61,3,0,0,7,72,11,0,150,0,0,0,0,0,0,0,0,0,105,11,10,32,0,0,72,0,0,1,1,0,0,0,0,0,0,0,0,0,0,0,0,0,0,0,0,0,0,0,0,0,0,0,0,0,0,0,0,0,85,
